State_name,State_abb,FIPS.state,AreaName,County,Region,Division,FIPS.county,LandSQMI,AreaSQMI,Pop100,HU100,IntPtLat,IntPtLon,doe_climate_zone,doe_moisture_regime,is_warm_humid,merged,FIPS.long
Alabama,AL,1,DeKalb County,DeKalb AL,3,6,49,777.91,778.65,64452,28051,34.459133,-85.798919,3,moist,f,dekalb al,1049
Alabama,AL,1,Marshall County,Marshall AL,3,6,95,567.06,623.16,82231,36331,34.329598,-86.288884,3,moist,f,marshall al,1095
Alabama,AL,1,Baldwin County,Baldwin AL,3,6,3,1596.35,2026.93,140415,74285,30.592781,-87.74826,2,moist,t,baldwin al,1003
Alabama,AL,1,Fayette County,Fayette AL,3,6,57,627.66,629.34,18495,8472,33.747077,-87.751725,3,moist,f,fayette al,1057
Alabama,AL,1,Cherokee County,Cherokee AL,3,6,19,553.12,599.95,23988,14025,34.184158,-85.62193,3,moist,f,cherokee al,1019
Alabama,AL,1,Crenshaw County,Crenshaw AL,3,6,41,609.58,610.88,13665,6644,31.710365,-86.289299,3,moist,t,crenshaw al,1041
Alabama,AL,1,Randolph County,Randolph AL,3,6,111,581.05,584.11,22380,10285,33.262424,-85.445563,3,moist,f,randolph al,1111
Alabama,AL,1,Henry County,Henry AL,3,6,67,561.8,568.33,16310,8037,31.493511,-85.25376,3,moist,t,henry al,1067
Alabama,AL,1,Talladega County,Talladega AL,3,6,121,739.53,760.25,80321,34469,33.368498,-86.178278,3,moist,f,talladega al,1121
Alabama,AL,1,Lee County,Lee AL,3,6,81,608.71,615.55,115092,50329,32.607485,-85.328947,3,moist,f,lee al,1081
Alabama,AL,1,Dallas County,Dallas AL,3,6,47,980.71,993.37,46365,20450,32.379942,-87.065563,3,moist,t,dallas al,1047
Alabama,AL,1,Greene County,Greene AL,3,6,63,645.87,659.93,9974,5117,32.837254,-87.950852,3,moist,f,greene al,1063
Alabama,AL,1,Conecuh County,Conecuh AL,3,6,35,850.79,852.51,14089,7265,31.415613,-87.002108,3,moist,t,conecuh al,1035
Alabama,AL,1,Bibb County,Bibb AL,3,6,7,623.03,626.16,20826,8345,33.040054,-87.123243,3,moist,f,bibb al,1007
Alabama,AL,1,Butler County,Butler AL,3,6,13,776.87,777.92,21399,9957,31.735884,-86.662232,3,moist,t,butler al,1013
Alabama,AL,1,Choctaw County,Choctaw AL,3,6,23,913.51,920.85,15922,7839,32.027681,-88.257855,3,moist,t,choctaw al,1023
Alabama,AL,1,Lamar County,Lamar AL,3,6,75,604.85,605.47,15904,7517,33.772995,-88.084702,3,moist,f,lamar al,1075
Alabama,AL,1,Houston County,Houston AL,3,6,69,580.36,581.65,88787,39571,31.189731,-85.350387,3,moist,t,houston al,1069
Alabama,AL,1,Clarke County,Clarke AL,3,6,25,1238.38,1252.51,27867,12631,31.688155,-87.834164,3,moist,t,clarke al,1025
Alabama,AL,1,Franklin County,Franklin AL,3,6,59,635.64,646.51,31223,13749,34.465405,-87.832638,3,moist,f,franklin al,1059
Alabama,AL,1,Pickens County,Pickens AL,3,6,107,881.42,890.05,20949,9520,33.27409,-88.088963,3,moist,f,pickens al,1107
Alabama,AL,1,Sumter County,Sumter AL,3,6,119,904.94,913.3,14798,6953,32.558734,-88.215706,3,moist,f,sumter al,1119
Alabama,AL,1,Etowah County,Etowah AL,3,6,55,534.82,548.75,103459,45959,34.018597,-86.032125,3,moist,f,etowah al,1055
Alabama,AL,1,Coffee County,Coffee AL,3,6,31,678.99,680.48,43615,19837,31.378987,-85.956841,3,moist,t,coffee al,1031
Alabama,AL,1,Winston County,Winston AL,3,6,133,614.44,631.86,24843,12502,34.151249,-87.418848,3,moist,f,winston al,1133
Alabama,AL,1,Walker County,Walker AL,3,6,127,794.39,805.3,70713,32417,33.819888,-87.285406,3,moist,f,walker al,1127
Alabama,AL,1,Hale County,Hale AL,3,6,65,643.74,656.47,17185,7756,32.768094,-87.635687,3,moist,f,hale al,1065
Alabama,AL,1,Marengo County,Marengo AL,3,6,91,977.04,982.85,22539,10127,32.331745,-87.788789,3,moist,t,marengo al,1091
Alabama,AL,1,Perry County,Perry AL,3,6,105,719.48,724.08,11861,5406,32.613284,-87.334017,3,moist,t,perry al,1105
Alabama,AL,1,Mobile County,Mobile AL,3,6,97,1233.09,1644.02,399843,165101,30.722256,-88.139667,2,moist,t,mobile al,1097
Alabama,AL,1,Chilton County,Chilton AL,3,6,21,693.98,700.76,39593,17651,32.852554,-86.689982,3,moist,f,chilton al,1021
Alabama,AL,1,Montgomery County,Montgomery AL,3,6,101,789.76,799.76,223510,95437,32.331872,-86.260844,3,moist,t,montgomery al,1101
Alabama,AL,1,Coosa County,Coosa AL,3,6,37,652.44,666.36,12202,6142,32.955511,-86.236319,3,moist,f,coosa al,1037
Alabama,AL,1,St. Clair County,St. Clair AL,3,6,115,633.75,653.61,64742,27303,33.667273,-86.329327,3,moist,f,st. clair al,1115
Alabama,AL,1,Washington County,Washington AL,3,6,129,1080.66,1088.54,18097,8123,31.366088,-88.151002,3,moist,t,washington al,1129
Alabama,AL,1,Chambers County,Chambers AL,3,6,17,597.17,603.11,36583,16256,32.891233,-85.288745,3,moist,f,chambers al,1017
Alabama,AL,1,Blount County,Blount AL,3,6,9,645.59,650.6,51024,21158,33.978461,-86.554768,3,moist,f,blount al,1009
Alabama,AL,1,Tallapoosa County,Tallapoosa AL,3,6,123,717.93,766.23,41475,20510,32.850131,-85.835005,3,moist,f,tallapoosa al,1123
Alabama,AL,1,Geneva County,Geneva AL,3,6,61,576.28,578.9,25764,12115,31.094579,-85.796983,3,moist,t,geneva al,1061
Alabama,AL,1,Tuscaloosa County,Tuscaloosa AL,3,6,125,1324.37,1351.23,164875,71429,33.2356,-87.511691,3,moist,f,tuscaloosa al,1125
Alabama,AL,1,Lauderdale County,Lauderdale AL,3,6,77,669.46,718.78,87966,40424,34.87689,-87.6057,3,moist,f,lauderdale al,1077
Alabama,AL,1,Lowndes County,Lowndes AL,3,6,85,717.94,725.03,13473,5801,32.17128,-86.659917,3,moist,t,lowndes al,1085
Alabama,AL,1,Jackson County,Jackson AL,3,6,71,1078.74,1126.77,53926,24168,34.755318,-85.948462,3,moist,f,jackson al,1071
Alabama,AL,1,Bullock County,Bullock AL,3,6,11,625.01,626.06,11714,4727,32.098285,-85.704915,3,moist,t,bullock al,1011
Alabama,AL,1,Calhoun County,Calhoun AL,3,6,15,608.46,612.32,112249,51322,33.741989,-85.817544,3,moist,f,calhoun al,1015
Alabama,AL,1,Covington County,Covington AL,3,6,39,1033.82,1043.86,37631,18578,31.251036,-86.416195,3,moist,t,covington al,1039
Alabama,AL,1,Barbour County,Barbour AL,3,6,5,884.9,904.52,29038,12461,31.856515,-85.331312,3,moist,t,barbour al,1005
Alabama,AL,1,Dale County,Dale AL,3,6,45,561.07,562.67,49129,21779,31.3941,-85.615013,3,moist,t,dale al,1045
Alabama,AL,1,Lawrence County,Lawrence AL,3,6,79,693.38,718.07,34803,15009,34.554375,-87.302184,3,moist,f,lawrence al,1079
Alabama,AL,1,Madison County,Madison AL,3,6,89,804.92,812.85,276700,120288,34.73079,-86.588226,3,moist,f,madison al,1089
Alabama,AL,1,Macon County,Macon AL,3,6,87,610.52,613.24,24105,10627,32.421555,-85.721158,3,moist,t,macon al,1087
Alabama,AL,1,Pike County,Pike AL,3,6,109,671.03,672.1,29605,13981,31.792165,-85.93737,3,moist,t,pike al,1109
Alabama,AL,1,Clay County,Clay AL,3,6,27,605.07,606,14254,6612,33.26581,-85.842858,3,moist,f,clay al,1027
Alabama,AL,1,Russell County,Russell AL,3,6,113,641.32,647.38,49756,22831,32.376002,-85.1011,3,moist,t,russell al,1113
Alabama,AL,1,Cleburne County,Cleburne AL,3,6,29,560.21,561.02,14123,6189,33.647948,-85.511937,3,moist,f,cleburne al,1029
Alabama,AL,1,Morgan County,Morgan AL,3,6,103,582.21,599.06,111064,47388,34.507018,-86.91892,3,moist,f,morgan al,1103
Alabama,AL,1,Colbert County,Colbert AL,3,6,33,594.53,623.61,54984,24980,34.73148,-87.72596,3,moist,f,colbert al,1033
Alabama,AL,1,Limestone County,Limestone AL,3,6,83,568.05,607.08,65676,26897,34.807445,-86.974946,3,moist,f,limestone al,1083
Alabama,AL,1,Autauga County,Autauga AL,3,6,1,595.97,604.45,43671,17662,32.523283,-86.577176,3,moist,t,autauga al,1001
Alabama,AL,1,Shelby County,Shelby AL,3,6,117,794.69,809.53,143293,59302,33.26912,-86.698665,3,moist,f,shelby al,1117
Alabama,AL,1,Monroe County,Monroe AL,3,6,99,1025.85,1034.53,24324,11343,31.555656,-87.359637,3,moist,t,monroe al,1099
Alabama,AL,1,Elmore County,Elmore AL,3,6,51,621.26,657.21,65874,25733,32.596847,-86.170765,3,moist,t,elmore al,1051
Alabama,AL,1,Wilcox County,Wilcox AL,3,6,131,888.68,907.46,13183,6183,31.993335,-87.348302,3,moist,t,wilcox al,1131
Alabama,AL,1,Marion County,Marion AL,3,6,93,741.41,743.57,31214,14416,34.116331,-87.878737,3,moist,f,marion al,1093
Alabama,AL,1,Cullman County,Cullman AL,3,6,43,738.43,754.82,77483,35233,34.155603,-86.830179,3,moist,f,cullman al,1043
Alabama,AL,1,Escambia County,Escambia AL,3,6,53,947.38,952.95,38440,16544,31.104135,-87.23288,3,moist,t,escambia al,1053
Alabama,AL,1,Jefferson County,Jefferson AL,3,6,73,1112.61,1123.8,662047,288162,33.527872,-86.82805,3,moist,f,jefferson al,1073
Alaska,AK,2,Bethel Census Area,Bethel Census Area AK,4,9,50,40633.31,45508.46,16006,5188,60.888556,-161.191411,8,,f,bethel (ca) ak,2050
Alaska,AK,2,Juneau City and Borough,Juneau Borough AK,4,9,110,2716.67,3255.01,30711,12282,58.351422,-134.511579,7,,f,juneau ak,2110
Alaska,AK,2,Northwest Arctic Borough,Northwest Arctic Borough AK,4,9,188,35898.34,40762,7208,2540,66.822031,-160.646404,8,,f,northwest arctic ak,2188
Alaska,AK,2,Denali Borough,Denali Borough AK,4,9,68,12749.65,12774.53,1893,1351,63.893564,-149.104615,7,,f,denali ak,2068
Alaska,AK,2,Bristol Bay Borough,Bristol Bay Borough AK,4,9,60,504.92,887.68,1258,979,58.690594,-156.786726,7,,f,bristol bay ak,2060
Alaska,AK,2,Aleutians West Census Area,Aleutians West Census Area AK,4,9,16,4396.77,14116.51,5465,2234,52.31936,-172.454123,7,,f,aleutians west (ca) ak,2016
Alaska,AK,2,Sitka City and Borough,Sitka Borough AK,4,9,220,2873.98,4811.53,8835,3650,57.079871,-135.331757,7,,f,sitka ak,2220
Alaska,AK,2,North Slope Borough,North Slope Borough AK,4,9,185,88817.12,94762.64,7385,2538,70.599509,-153.940111,8,,f,north slope ak,2185
Alaska,AK,2,Ketchikan Gateway Borough,Ketchikan Gateway Borough AK,4,9,130,1233.22,1753.98,14070,6218,55.354938,-131.620295,7,,f,ketchikan gateway ak,2130
Alaska,AK,2,Dillingham Census Area,Dillingham Census Area AK,4,9,70,18674.78,20928.41,4922,2332,59.190911,-158.61404,8,,f,dillingham (ca) ak,2070
Alaska,AK,2,Southeast Fairbanks Census Area,Southeast Fairbanks Census Area AK,4,9,240,24814.86,25061.19,6174,3225,63.607284,-143.910084,8,,f,southeast fairbanks (ca) ak,2240
Alaska,AK,2,Kenai Peninsula Borough,Kenai Peninsula Borough AK,4,9,122,16013.26,24754.6,49691,24871,60.349178,-150.987663,7,,f,kenai peninsula ak,2122
Alaska,AK,2,Skagway-Hoonah-Angoon Census Area,Skagway-Hoonah-Angoon Census Area AK,4,9,232,7896.48,11376.73,3436,2108,58.321676,-135.458953,7,,f,skagway-hoonah-angoon (ca) ak,2232
Alaska,AK,2,Prince of Wales-Outer Ketchikan Census Area,Prince of Wales-Outer Ketchikan Census AK,4,9,201,7410.62,12706.3,6146,3055,55.552229,-132.58473,7,,f,prince of wales-outer ketchikan (ca) ak,2201
Alaska,AK,2,Wrangell-Petersburg Census Area,Wrangell-Petersburg Census Area AK,4,9,280,5834.94,9021.21,6684,3284,56.71434,-133.073562,7,,f,wrangell-petersburg (ca) ak,2280
Alaska,AK,2,Valdez-Cordova Census Area,Valdez-Cordova Census Area AK,4,9,261,34319.1,40199.15,10195,5148,61.458662,-145.325925,7,,f,valdez-cordova (ca) ak,2261
Alaska,AK,2,Nome Census Area,Nome Census Area AK,4,9,180,23000.91,28283.33,9196,3649,64.809165,-164.346772,8,,f,nome (ca) ak,2180
Alaska,AK,2,Aleutians East Borough,Aleutians East Borough AK,4,9,13,6988.14,15011.6,2697,724,55.125713,-162.030237,7,,f,aleutians east ak,2013
Alaska,AK,2,Matanuska-Susitna Borough,Matanuska-Susitna Borough AK,4,9,170,24681.54,25259.79,59322,27329,61.762742,-149.481089,7,,f,matanuska-susitna ak,2170
Alaska,AK,2,Yukon-Koyukuk Census Area,Yukon-Koyukuk Census Area AK,4,9,290,145899.69,147842.51,6551,3917,65.129566,-151.854704,8,,f,yukon-koyukuk (ca) ak,2290
Alaska,AK,2,Haines Borough,Haines Borough AK,4,9,100,2343.73,2725.82,2392,1419,59.24545,-135.529519,7,,f,haines ak,2100
Alaska,AK,2,Kodiak Island Borough,Kodiak Island Borough AK,4,9,150,6559.85,12023.67,13913,5159,57.694078,-152.682317,7,,f,kodiak island ak,2150
Alaska,AK,2,Lake and Peninsula Borough,Lake and Peninsula Borough AK,4,9,164,23781.96,30906.96,1823,1557,58.605648,-156.409989,7,,f,lake and peninsula ak,2164
Alaska,AK,2,Wade Hampton Census Area,Wade Hampton Census Area AK,4,9,270,17193.5,19669.24,7028,2063,62.084927,-163.736818,8,,f,wade hampton (ca) ak,2270
Alaska,AK,2,Anchorage Municipality,Anchorage Borough AK,4,9,20,1697.21,1961.09,260283,100368,61.1919,-149.762097,7,,f,anchorage ak,2020
Alaska,AK,2,Fairbanks North Star Borough,Fairbanks North Star Borough AK,4,9,90,7366.24,7444.02,82840,33291,64.81859,-147.568384,8,,f,fairbanks north star ak,2090
Alaska,AK,2,Yakutat City and Borough,Yakutat Borough,4,9,282,7650.46,9459.28,808,499,59.793489,-140.27124800000001,7,,f,yakutat ak,2282
Arizona,AZ,4,Graham County,Graham AZ,4,8,9,4629.32,4641.14,33489,11430,32.865056,-109.816242,3,dry,f,graham az,4009
Arizona,AZ,4,Yavapai County,Yavapai AZ,4,8,25,8123.3,8127.78,167517,81730,34.650332,-112.414707,4,dry,f,yavapai az,4025
Arizona,AZ,4,Gila County,Gila AZ,4,8,7,4767.7,4795.74,51335,28189,33.714683,-110.977311,4,dry,f,gila az,4007
Arizona,AZ,4,Coconino County,Coconino AZ,4,8,5,18617.42,18661.21,116320,53443,35.77144,-111.511062,5,dry,f,coconino az,4005
Arizona,AZ,4,Santa Cruz County,Santa Cruz AZ,4,8,23,1237.63,1238.11,38381,13036,31.4819,-110.905734,3,dry,f,santa cruz az,4023
Arizona,AZ,4,La Paz County,La Paz AZ,4,8,12,4499.95,4513.36,19715,15133,33.863604,-114.045079,2,dry,f,la paz az,4012
Arizona,AZ,4,Cochise County,Cochise AZ,4,8,3,6169.45,6218.77,117755,51126,31.750272,-109.904319,3,dry,f,cochise az,4003
Arizona,AZ,4,Maricopa County,Maricopa AZ,4,8,13,9203.14,9224.27,3072149,1250231,33.494514,-112.087906,2,dry,f,maricopa az,4013
Arizona,AZ,4,Mohave County,Mohave AZ,4,8,15,13311.64,13469.71,155032,80062,35.285985,-114.082709,3,dry,f,mohave az,4015
Arizona,AZ,4,Pima County,Pima AZ,4,8,19,9186.27,9188.83,843746,366737,32.17841,-111.088624,2,dry,f,pima az,4019
Arizona,AZ,4,Greenlee County,Greenlee AZ,4,8,11,1847,1848.42,8547,3744,33.068497,-109.273764,3,dry,f,greenlee az,4011
Arizona,AZ,4,Pinal County,Pinal AZ,4,8,21,5369.59,5374.09,179727,81154,32.965668,-111.498113,2,dry,f,pinal az,4021
Arizona,AZ,4,Apache County,Apache AZ,4,8,1,11204.88,11218.42,69423,31621,35.645278,-109.44962,5,dry,f,apache az,4001
Arizona,AZ,4,Yuma County,Yuma AZ,4,8,27,5514.09,5518.96,160026,74140,32.684752,-114.388951,2,dry,f,yuma az,4027
Arizona,AZ,4,Navajo County,Navajo AZ,4,8,17,9953.18,9959.49,97470,47413,35.406314,-110.256683,5,dry,f,navajo az,4017
Arkansas,AR,5,Baxter County,Baxter AR,3,7,5,554.36,586.74,38386,19891,36.3122,-92.354317,4,moist,f,baxter ar,5005
Arkansas,AR,5,Faulkner County,Faulkner AR,3,7,45,647.38,664.01,86014,34546,35.119477,-92.379944,3,moist,f,faulkner ar,5045
Arkansas,AR,5,Phillips County,Phillips AR,3,7,107,692.67,727.29,26445,10859,34.468372,-90.761973,3,moist,f,phillips ar,5107
Arkansas,AR,5,Clay County,Clay AR,3,7,21,639.3,641.42,17609,8498,36.364388,-90.40057,3,moist,f,clay ar,5021
Arkansas,AR,5,Greene County,Greene AR,3,7,55,577.51,579.65,37331,16161,36.098211,-90.513709,3,moist,f,greene ar,5055
Arkansas,AR,5,Lincoln County,Lincoln AR,3,7,79,561.2,572.17,14492,4955,33.978821,-91.709049,3,moist,f,lincoln ar,5079
Arkansas,AR,5,Polk County,Polk AR,3,7,113,859.38,862.42,20229,9236,34.48549,-94.253631,3,moist,f,polk ar,5113
Arkansas,AR,5,Lee County,Lee AR,3,7,77,601.66,619.47,12580,4768,34.780126,-90.76396,3,moist,f,lee ar,5077
Arkansas,AR,5,Crittenden County,Crittenden AR,3,7,35,610.17,636.69,50866,20507,35.197701,-90.2728,3,moist,f,crittenden ar,5035
Arkansas,AR,5,Hot Spring County,Hot Spring AR,3,7,59,614.93,622.16,30353,13384,34.33745,-92.891238,3,moist,f,hot spring ar,5059
Arkansas,AR,5,Arkansas County,Arkansas AR,3,7,1,988.49,1033.79,20749,9672,34.359997,-91.429413,3,moist,f,arkansas ar,5001
Arkansas,AR,5,Yell County,Yell AR,3,7,149,927.89,948.84,21139,9157,35.03851,-93.362084,3,moist,f,yell ar,5149
Arkansas,AR,5,Fulton County,Fulton AR,3,7,49,618.16,620.31,11642,5973,36.355003,-91.729311,4,moist,f,fulton ar,5049
Arkansas,AR,5,Randolph County,Randolph AR,3,7,121,651.82,656.04,18195,8268,36.315472,-90.988939,3,moist,f,randolph ar,5121
Arkansas,AR,5,Izard County,Izard AR,3,7,65,580.68,584.02,13249,6591,36.139475,-91.874963,4,moist,f,izard ar,5065
Arkansas,AR,5,Bradley County,Bradley AR,3,7,11,650.63,654.38,12600,5930,33.52092,-92.141138,3,moist,f,bradley ar,5011
Arkansas,AR,5,Desha County,Desha AR,3,7,41,764.99,819.52,15341,6663,33.789358,-91.350302,3,moist,f,desha ar,5041
Arkansas,AR,5,Ouachita County,Ouachita AR,3,7,103,732.45,739.63,28790,13450,33.574007,-92.861447,3,moist,f,ouachita ar,5103
Arkansas,AR,5,Carroll County,Carroll AR,3,7,15,630.27,638.81,25357,11828,36.364131,-93.566034,4,moist,f,carroll ar,5015
Arkansas,AR,5,Logan County,Logan AR,3,7,83,709.87,731.5,22486,9942,35.220758,-93.755313,3,moist,f,logan ar,5083
Arkansas,AR,5,Dallas County,Dallas AR,3,7,39,667.42,668.16,9210,4401,33.93813,-92.608187,3,moist,f,dallas ar,5039
Arkansas,AR,5,Saline County,Saline AR,3,7,125,723.46,730.46,83529,33825,34.616381,-92.636449,3,moist,f,saline ar,5125
Arkansas,AR,5,Poinsett County,Poinsett AR,3,7,111,757.74,763.39,25614,11051,35.587012,-90.603918,3,moist,f,poinsett ar,5111
Arkansas,AR,5,Crawford County,Crawford AR,3,7,33,595.39,604.2,53247,21315,35.523127,-94.26023,3,moist,f,crawford ar,5033
Arkansas,AR,5,Washington County,Washington AR,3,7,143,949.72,956.01,157715,64330,36.051379,-94.198684,4,moist,f,washington ar,5143
Arkansas,AR,5,Ashley County,Ashley AR,3,7,3,921.15,939.08,24209,10615,33.18542,-91.785346,3,moist,f,ashley ar,5003
Arkansas,AR,5,St. Francis County,St. Francis AR,3,7,123,633.84,642.4,29329,11242,35.015874,-90.708841,3,moist,f,st. francis ar,5123
Arkansas,AR,5,Sevier County,Sevier AR,3,7,133,563.94,581.35,15757,6434,34.016649,-94.262899,3,moist,t,sevier ar,5133
Arkansas,AR,5,Calhoun County,Calhoun AR,3,7,13,628.27,632.54,5744,3012,33.595502,-92.510135,3,moist,f,calhoun ar,5013
Arkansas,AR,5,Searcy County,Searcy AR,3,7,129,667.15,668.51,8261,4292,35.920954,-92.688268,4,moist,f,searcy ar,5129
Arkansas,AR,5,Chicot County,Chicot AR,3,7,17,644.03,690.88,14117,5974,33.309088,-91.309446,3,moist,f,chicot ar,5017
Arkansas,AR,5,Prairie County,Prairie AR,3,7,117,645.93,675.76,9539,4790,34.807983,-91.534077,3,moist,f,prairie ar,5117
Arkansas,AR,5,Mississippi County,Mississippi AR,3,7,93,898.25,919.73,51979,22310,35.806751,-90.030415,3,moist,f,mississippi ar,5093
Arkansas,AR,5,Montgomery County,Montgomery AR,3,7,97,780.93,800.29,9245,5048,34.559133,-93.643872,3,moist,f,montgomery ar,5097
Arkansas,AR,5,Boone County,Boone AR,3,7,9,591.18,601.82,33948,15426,36.285221,-93.065891,4,moist,f,boone ar,5009
Arkansas,AR,5,Miller County,Miller AR,3,7,91,623.98,637.48,40443,17727,33.384684,-93.968079,3,moist,t,miller ar,5091
Arkansas,AR,5,Garland County,Garland AR,3,7,51,677.22,734.57,88068,44953,34.545307,-93.075894,3,moist,f,garland ar,5051
Arkansas,AR,5,Perry County,Perry AR,3,7,105,550.94,560.47,10209,4702,34.982668,-92.86163,3,moist,f,perry ar,5105
Arkansas,AR,5,Benton County,Benton AR,3,7,7,845.99,880.24,153406,64281,36.354146,-94.246822,4,moist,f,benton ar,5007
Arkansas,AR,5,Union County,Union AR,3,7,139,1038.9,1055.27,45629,20676,33.207178999999996,-92.612793,3,moist,t,union ar,5139
Arkansas,AR,5,Columbia County,Columbia AR,3,7,27,766.11,766.86,25603,11566,33.249422,-93.229778,3,moist,t,columbia ar,5027
Arkansas,AR,5,Little River County,Little River AR,3,7,81,531.73,564.87,13628,6435,33.697284,-94.220589,3,moist,t,little river ar,5081
Arkansas,AR,5,Jefferson County,Jefferson AR,3,7,69,884.82,913.7,84278,34350,34.243795,-91.987152,3,moist,f,jefferson ar,5069
Arkansas,AR,5,White County,White AR,3,7,145,1034.03,1042.36,67165,27613,35.250106,-91.730562,3,moist,f,white ar,5145
Arkansas,AR,5,Scott County,Scott AR,3,7,127,893.88,898.09,10996,4924,34.880858,-94.089691,3,moist,f,scott ar,5127
Arkansas,AR,5,Sebastian County,Sebastian AR,3,7,131,536.24,546.04,115071,49311,35.293916,-94.351769,3,moist,f,sebastian ar,5131
Arkansas,AR,5,Howard County,Howard AR,3,7,61,587.42,595.2,14300,6297,34.050292,-93.964857,3,moist,f,howard ar,5061
Arkansas,AR,5,Lawrence County,Lawrence AR,3,7,75,586.57,592.34,17774,8085,36.070597,-91.071214,3,moist,f,lawrence ar,5075
Arkansas,AR,5,Johnson County,Johnson AR,3,7,71,662.17,682.74,22781,9926,35.498657,-93.484633,3,moist,f,johnson ar,5071
Arkansas,AR,5,Craighead County,Craighead AR,3,7,31,710.84,712.98,82148,35133,35.828198,-90.631993,3,moist,f,craighead ar,5031
Arkansas,AR,5,Marion County,Marion AR,3,7,89,597.7,640.35,16140,8235,36.291289,-92.681404,4,moist,f,marion ar,5089
Arkansas,AR,5,Hempstead County,Hempstead AR,3,7,57,728.77,741.36,23587,10166,33.717614,-93.64793,3,moist,t,hempstead ar,5057
Arkansas,AR,5,Newton County,Newton AR,3,7,101,822.97,823.18,8608,4316,35.967765,-93.188458,4,moist,f,newton ar,5101
Arkansas,AR,5,Nevada County,Nevada AR,3,7,99,619.95,620.78,9955,4751,33.689358,-93.327444,3,moist,f,nevada ar,5099
Arkansas,AR,5,Monroe County,Monroe AR,3,7,95,606.65,621.41,10254,5067,34.732843,-91.207816,3,moist,f,monroe ar,5095
Arkansas,AR,5,Van Buren County,Van Buren AR,3,7,141,711.51,724.32,16192,9164,35.565783,-92.414162,3,moist,f,van buren ar,5141
Arkansas,AR,5,Independence County,Independence AR,3,7,63,763.78,771.57,34233,14841,35.757476,-91.587049,3,moist,f,independence ar,5063
Arkansas,AR,5,Jackson County,Jackson AR,3,7,67,633.52,641.45,18418,7956,35.613258,-91.227582,3,moist,f,jackson ar,5067
Arkansas,AR,5,Stone County,Stone AR,3,7,137,606.59,609.43,11499,5715,35.874106,-92.169912,4,moist,f,stone ar,5137
Arkansas,AR,5,Pulaski County,Pulaski AR,3,7,119,770.82,807.84,361474,161135,34.766541,-92.294471,3,moist,f,pulaski ar,5119
Arkansas,AR,5,Conway County,Conway AR,3,7,29,556.15,566.66,20336,9028,35.207694,-92.713984,3,moist,f,conway ar,5029
Arkansas,AR,5,Pike County,Pike AR,3,7,109,603.01,613.88,11303,5536,34.17731,-93.656805,3,moist,f,pike ar,5109
Arkansas,AR,5,Cross County,Cross AR,3,7,37,615.85,622.33,19526,8030,35.279599,-90.786115,3,moist,f,cross ar,5037
Arkansas,AR,5,Cleburne County,Cleburne AR,3,7,23,553.05,591.91,24046,13732,35.535227,-92.060882,3,moist,f,cleburne ar,5023
Arkansas,AR,5,Woodruff County,Woodruff AR,3,7,147,586.56,594.05,8741,4089,35.196189,-91.24409,3,moist,f,woodruff ar,5147
Arkansas,AR,5,Madison County,Madison AR,3,7,87,836.81,837.06,14243,6537,36.031137,-93.730452,4,moist,f,madison ar,5087
Arkansas,AR,5,Cleveland County,Cleveland AR,3,7,25,597.74,598.8,8571,3834,33.904731,-92.216337,3,moist,f,cleveland ar,5025
Arkansas,AR,5,Lafayette County,Lafayette AR,3,7,73,526.5,545.07,8559,4560,33.272263,-93.563116,3,moist,t,lafayette ar,5073
Arkansas,AR,5,Pope County,Pope AR,3,7,115,811.9,830.79,54469,22851,35.330478,-93.084446,3,moist,f,pope ar,5115
Arkansas,AR,5,Sharp County,Sharp AR,3,7,135,604.35,606.35,17119,9342,36.190062,-91.498459,3,moist,f,sharp ar,5135
Arkansas,AR,5,Drew County,Drew AR,3,7,43,828.18,835.65,18723,8287,33.600602,-91.735642,3,moist,f,drew ar,5043
Arkansas,AR,5,Lonoke County,Lonoke AR,3,7,85,765.96,802.43,52828,20749,34.77905,-91.912157,3,moist,f,lonoke ar,5085
Arkansas,AR,5,Franklin County,Franklin AR,3,7,47,609.55,619.69,17771,7673,35.47758,-93.884506,3,moist,f,franklin ar,5047
Arkansas,AR,5,Clark County,Clark AR,3,7,19,865.43,882.6,23546,10166,34.068954,-93.157703,3,moist,f,clark ar,5019
Arkansas,AR,5,Grant County,Grant AR,3,7,53,631.78,633.01,16464,6960,34.311031,-92.450809,3,moist,f,grant ar,5053
California,CA,6,Nevada County,Nevada CA,4,9,57,957.61,974.49,92033,44282,39.270775,-120.814268,5,dry,f,nevada ca,6057
California,CA,6,El Dorado County,El Dorado CA,4,9,17,1710.85,1788.1,156299,71278,38.768651,-120.571902,4,dry,f,el dorado ca,6017
California,CA,6,Santa Barbara County,Santa Barbara CA,4,9,83,2737.01,3789.08,399347,142901,34.649384,-120.071425,3,marine,f,santa barbara ca,6083
California,CA,6,Fresno County,Fresno CA,4,9,19,5962.73,6017.42,799407,270767,36.638374,-119.90347,3,dry,f,fresno ca,6019
California,CA,6,Sierra County,Sierra CA,4,9,91,953.38,961.97,3555,2202,39.582063,-120.534038,5,dry,f,sierra ca,6091
California,CA,6,Sonoma County,Sonoma CA,4,9,97,1575.88,1768.23,458614,183153,38.440089,-122.768624,3,marine,f,sonoma ca,6097
California,CA,6,Tehama County,Tehama CA,4,9,103,2950.99,2962.27,56039,23547,40.123054,-122.13534,3,dry,f,tehama ca,6103
California,CA,6,Napa County,Napa CA,4,9,55,753.73,788.27,124279,48554,38.353762,-122.332133,3,marine,f,napa ca,6055
California,CA,6,Santa Cruz County,Santa Cruz CA,4,9,87,445.24,607.16,255602,98873,37.002349,-121.973761,3,marine,f,santa cruz ca,6087
California,CA,6,Monterey County,Monterey CA,4,9,53,3321.95,3771.07,401762,131708,36.450732,-121.528953,3,marine,f,monterey ca,6053
California,CA,6,Lassen County,Lassen CA,4,9,35,4557.27,4720.37,33828,12e3,40.612365,-120.720234,5,dry,f,lassen ca,6035
California,CA,6,San Joaquin County,San Joaquin CA,4,9,77,1399.28,1426.25,563598,189160,37.945959,-121.281307,3,dry,f,san joaquin ca,6077
California,CA,6,Tulare County,Tulare CA,4,9,107,4823.97,4839.09,368021,119639,36.234647,-119.166093,3,dry,f,tulare ca,6107
California,CA,6,Marin County,Marin CA,4,9,41,519.8,828.2,247289,104990,37.985723,-122.575951,3,marine,f,marin ca,6041
California,CA,6,Inyo County,Inyo CA,4,9,27,10203.1,10226.98,17945,9042,36.709037,-117.693329,4,dry,f,inyo ca,6027
California,CA,6,Calaveras County,Calaveras CA,4,9,9,1020.04,1036.84,40554,22946,38.167573,-120.557245,4,dry,f,calaveras ca,6009
California,CA,6,Contra Costa County,Contra Costa CA,4,9,13,719.95,802.15,948816,354577,37.942423,-122.060886,3,dry,f,contra costa ca,6013
California,CA,6,Imperial County,Imperial CA,4,9,25,4174.73,4481.73,142361,43891,32.963098,-115.487593,2,dry,f,imperial ca,6025
California,CA,6,Mariposa County,Mariposa CA,4,9,43,1451.12,1462.79,17130,8826,37.595471,-120.003539,4,dry,f,mariposa ca,6043
California,CA,6,Amador County,Amador CA,4,9,5,592.97,604.69,35100,15035,38.428879,-120.715248,4,dry,f,amador ca,6005
California,CA,6,Butte County,Butte CA,4,9,7,1639.49,1677.11,203171,85523,39.648354,-121.64631,3,dry,f,butte ca,6007
California,CA,6,Merced County,Merced CA,4,9,47,1928.69,1971.87,210554,68373,37.245783,-120.67411800000001,3,dry,f,merced ca,6047
California,CA,6,Mono County,Mono CA,4,9,51,3044.4,3131.8,12853,11757,37.853807,-118.961375,6,dry,f,mono ca,6051
California,CA,6,Solano County,Solano CA,4,9,95,829.19,906.67,394542,134513,38.235934,-122.051826,3,dry,f,solano ca,6095
California,CA,6,Colusa County,Colusa CA,4,9,11,1150.68,1156.22,18804,6774,39.187495,-122.152389,3,dry,f,colusa ca,6011
California,CA,6,San Luis Obispo County,San Luis Obispo CA,4,9,79,3304.32,3615.54,246681,102275,35.373909,-120.58746,3,marine,f,san luis obispo ca,6079
California,CA,6,Del Norte County,Del Norte CA,4,9,15,1007.81,1229.75,27507,10434,41.735225,-124.113924,4,marine,f,del norte ca,6015
California,CA,6,Placer County,Placer CA,4,9,61,1404.37,1502.78,248399,107302,38.971576,-120.947618,3,dry,f,placer ca,6061
California,CA,6,Santa Clara County,Santa Clara CA,4,9,85,1290.69,1304.01,1682585,579329,37.306509,-121.912818,3,marine,f,santa clara ca,6085
California,CA,6,Shasta County,Shasta CA,4,9,89,3785.19,3847.44,163256,68810,40.688705,-122.121202,3,dry,f,shasta ca,6089
California,CA,6,Yuba County,Yuba CA,4,9,115,630.69,643.73,60219,22636,39.207758,-121.422281,3,dry,f,yuba ca,6115
California,CA,6,Glenn County,Glenn CA,4,9,21,1314.79,1327.16,26453,9982,39.630023,-122.291407,3,dry,f,glenn ca,6021
California,CA,6,Stanislaus County,Stanislaus CA,4,9,99,1493.79,1514.67,446997,150807,37.613805,-120.9588,3,dry,f,stanislaus ca,6099
California,CA,6,Orange County,Orange CA,4,9,59,789.4,947.98,2846289,969484,33.731518,-117.861663,3,dry,f,orange ca,6059
California,CA,6,Kern County,Kern CA,4,9,29,8140.96,8161.42,661645,231564,35.296023,-118.683344,3,dry,f,kern ca,6029
California,CA,6,Ventura County,Ventura CA,4,9,111,1845.3,2208.2,753197,251712,34.277048,-119.045326,3,marine,f,ventura ca,6111
California,CA,6,Sacramento County,Sacramento CA,4,9,67,965.65,995.48,1223499,474814,38.561106,-121.389266,3,dry,f,sacramento ca,6067
California,CA,6,Yolo County,Yolo CA,4,9,113,1013.27,1022.89,168660,61587,38.634155,-121.775709,3,dry,f,yolo ca,6113
California,CA,6,Madera County,Madera CA,4,9,39,2135.86,2153.32,123109,40387,37.035073,-120.032438,3,dry,f,madera ca,6039
California,CA,6,San Diego County,San Diego CA,4,9,73,4199.89,4525.52,2813833,1040149,32.904616,-117.062993,3,dry,f,san diego ca,6073
California,CA,6,Alpine County,Alpine CA,4,9,3,738.62,743.19,1208,1514,38.632506,-119.888663,6,dry,f,alpine ca,6003
California,CA,6,Humboldt County,Humboldt CA,4,9,23,3572.49,4052.22,126518,55912,40.747403,-123.988265,4,marine,f,humboldt ca,6023
California,CA,6,Mendocino County,Mendocino CA,4,9,45,3508.97,3878.14,86265,36937,39.363102,-123.430217,3,marine,f,mendocino ca,6045
California,CA,6,Lake County,Lake CA,4,9,33,1257.96,1329.48,58309,32528,39.023264,-122.751791,4,dry,f,lake ca,6033
California,CA,6,San Bernardino County,San Bernardino CA,4,9,71,20052.5,20105.32,1709434,601369,34.392344,-116.982433,3,dry,f,san bernardino ca,6071
California,CA,6,Plumas County,Plumas CA,4,9,63,2553.69,2613.48,20824,13386,40.020149,-120.851195,5,dry,f,plumas ca,6063
California,CA,6,San Mateo County,San Mateo CA,4,9,81,449.07,741.01,707161,260576,37.531037,-122.331932,3,marine,f,san mateo ca,6081
California,CA,6,Siskiyou County,Siskiyou CA,4,9,93,6286.78,6347.46,44301,21947,41.614943,-122.502816,5,dry,f,siskiyou ca,6093
California,CA,6,Riverside County,Riverside CA,4,9,65,7207.37,7303.13,1545387,584674,33.783307,-116.803605,3,dry,f,riverside ca,6065
California,CA,6,San Benito County,San Benito CA,4,9,69,1389.06,1390.73,53234,16499,36.745753,-121.288843,3,marine,f,san benito ca,6069
California,CA,6,Kings County,Kings CA,4,9,31,1390.99,1391.49,129461,36563,36.155141,-119.811272,3,dry,f,kings ca,6031
California,CA,6,Trinity County,Trinity CA,4,9,105,3178.61,3207.54,13022,7980,40.667129,-123.070397,4,dry,f,trinity ca,6105
California,CA,6,Tuolumne County,Tuolumne CA,4,9,109,2235.41,2274.34,54501,28336,37.981845,-120.232775,4,dry,f,tuolumne ca,6109
California,CA,6,Modoc County,Modoc CA,4,9,49,3944.1,4203.37,9449,4807,41.52736,-120.790625,5,dry,f,modoc ca,6049
California,CA,6,Alameda County,Alameda CA,4,9,1,737.57,821.15,1443741,540183,37.716662,-122.096151,3,marine,f,alameda ca,6001
California,CA,6,Los Angeles County,Los Angeles CA,4,9,37,4060.87,4752.32,9519338,3270909,34.08851,-118.234216,3,dry,f,los angeles ca,6037
California,CA,6,San Francisco County,San Francisco CA,4,9,75,46.69,231.92,776733,346527,37.759881,-122.437392,3,marine,f,san francisco ca,6075
California,CA,6,Sutter County,Sutter CA,4,9,101,602.54,608.58,78930,28319,39.076193,-121.658159,3,dry,f,sutter ca,6101
Colorado,CO,8,Gunnison County,Gunnison CO,4,8,51,3238.81,3259.75,13956,9135,38.605701,-107.010914,7,,f,gunnison co,8051
Colorado,CO,8,Conejos County,Conejos CO,4,8,21,1287.22,1290.87,8400,3886,37.185193,-106.067753,6,dry,f,conejos co,8021
Colorado,CO,8,Routt County,Routt CO,4,8,107,2361.59,2368.02,19690,11217,40.46176,-106.947912,7,,f,routt co,8107
Colorado,CO,8,La Plata County,La Plata CO,4,8,67,1692.15,1699.93,43941,20765,37.264973,-107.798209,5,dry,f,la plata co,8067
Colorado,CO,8,Arapahoe County,Arapahoe CO,4,8,5,803.14,805.43,487967,196835,39.641904,-104.841455,5,dry,f,arapahoe co,8005
Colorado,CO,8,Pueblo County,Pueblo CO,4,8,101,2388.69,2397.73,141472,58926,38.235853,-104.623605,5,dry,f,pueblo co,8101
Colorado,CO,8,Logan County,Logan CO,4,8,75,1838.52,1844.86,20504,8424,40.663118,-103.129586,5,dry,f,logan co,8075
Colorado,CO,8,Huerfano County,Huerfano CO,4,8,55,1590.87,1593.24,7862,4599,37.607617,-104.962076,5,dry,f,huerfano co,8055
Colorado,CO,8,Rio Blanco County,Rio Blanco CO,4,8,103,3220.97,3222.91,5986,2855,40.010667,-108.279602,6,dry,f,rio blanco co,8103
Colorado,CO,8,Montezuma County,Montezuma CO,4,8,83,2036.63,2039.97,23830,10497,37.353687,-108.575842,5,dry,f,montezuma co,8083
Colorado,CO,8,Ouray County,Ouray CO,4,8,91,540.47,542.21,3742,2146,38.146914,-107.77056,6,dry,f,ouray co,8091
Colorado,CO,8,Fremont County,Fremont CO,4,8,43,1532.93,1533.95,46145,17145,38.427723,-105.300306,5,dry,f,fremont co,8043
Colorado,CO,8,Crowley County,Crowley CO,4,8,25,788.99,800.33,5518,1542,38.225299,-103.794584,5,dry,f,crowley co,8025
Colorado,CO,8,Eagle County,Eagle CO,4,8,37,1687.88,1691.8,41659,22111,39.58802,-106.705776,6,dry,f,eagle co,8037
Colorado,CO,8,Lake County,Lake CO,4,8,65,376.89,383.9,7812,3913,39.214575,-106.310225,7,,f,lake co,8065
Colorado,CO,8,Weld County,Weld CO,4,8,123,3992.45,4021.56,180936,66194,40.346681,-104.728213,5,dry,f,weld co,8123
Colorado,CO,8,Saguache County,Saguache CO,4,8,109,3168.44,3170.25,5917,3087,38.100481,-106.2104,6,dry,f,saguache co,8109
Colorado,CO,8,Archuleta County,Archuleta CO,4,8,7,1350.22,1355.48,9898,6212,37.215642,-107.112531,6,dry,f,archuleta co,8007
Colorado,CO,8,Rio Grande County,Rio Grande CO,4,8,105,911.6,912.14,12413,6003,37.637139,-106.326095,7,,f,rio grande co,8105
Colorado,CO,8,Lincoln County,Lincoln CO,4,8,73,2586.09,2586.39,6087,2406,39.104782,-103.573496,5,dry,f,lincoln co,8073
Colorado,CO,8,Larimer County,Larimer CO,4,8,69,2601.3,2633.86,251494,105392,40.534099,-105.213007,5,dry,f,larimer co,8069
Colorado,CO,8,Mesa County,Mesa CO,4,8,77,3327.75,3341.11,116255,48427,39.095228,-108.509096,5,dry,f,mesa co,8077
Colorado,CO,8,Elbert County,Elbert CO,4,8,39,1850.78,1850.89,19872,7113,39.293642,-104.292156,5,dry,f,elbert co,8039
Colorado,CO,8,Hinsdale County,Hinsdale CO,4,8,53,1117.68,1123.14,790,1304,37.823347,-107.268004,7,,f,hinsdale co,8053
Colorado,CO,8,Dolores County,Dolores CO,4,8,33,1066.97,1068.09,1844,1193,37.761037,-108.586457,6,dry,f,dolores co,8033
Colorado,CO,8,San Juan County,San Juan CO,4,8,111,387.42,388.29,558,632,37.809073,-107.674865,7,,f,san juan co,8111
Colorado,CO,8,Delta County,Delta CO,4,8,29,1142.11,1148.52,27834,12374,38.814325,-107.911736,5,dry,f,delta co,8029
Colorado,CO,8,Park County,Park CO,4,8,93,2200.69,2210.69,14523,10697,39.171091,-105.717199,7,,f,park co,8093
Colorado,CO,8,Cheyenne County,Cheyenne CO,4,8,17,1781.35,1781.37,2231,1105,38.816937,-102.523618,5,dry,f,cheyenne co,8017
Colorado,CO,8,Sedgwick County,Sedgwick CO,4,8,115,548.24,549.6,2747,1387,40.906615,-102.331149,5,dry,f,sedgwick co,8115
Colorado,CO,8,Baca County,Baca CO,4,8,9,2555.72,2557.09,4517,2364,37.348968,-102.534136,4,dry,f,baca co,8009
Colorado,CO,8,Boulder County,Boulder CO,4,8,13,742.46,751.37,291288,119900,40.058094,-105.195154,5,dry,f,boulder co,8013
Colorado,CO,8,Chaffee County,Chaffee CO,4,8,15,1013.45,1015.01,16242,8392,38.657693,-106.089152,6,dry,f,chaffee co,8015
Colorado,CO,8,Kiowa County,Kiowa CO,4,8,61,1770.99,1785.76,1622,817,38.449309,-102.638287,5,dry,f,kiowa co,8061
Colorado,CO,8,Costilla County,Costilla CO,4,8,23,1227.1,1230.44,3663,2202,37.288723,-105.501779,6,dry,f,costilla co,8023
Colorado,CO,8,Jefferson County,Jefferson CO,4,8,59,772.09,778.06,527056,212488,39.72716,-105.142196,5,dry,f,jefferson co,8059
Colorado,CO,8,Yuma County,Yuma CO,4,8,125,2365.79,2369.1,9841,4295,40.039416,-102.482412,5,dry,f,yuma co,8125
Colorado,CO,8,Otero County,Otero CO,4,8,89,1262.86,1269.74,20311,8813,38.016159,-103.702578,4,dry,f,otero co,8089
Colorado,CO,8,Jackson County,Jackson CO,4,8,57,1613.21,1620.95,1577,1145,40.648682,-106.267136,7,,f,jackson co,8057
Colorado,CO,8,Prowers County,Prowers CO,4,8,99,1640.38,1644.35,14483,5977,38.062234,-102.42527,5,dry,f,prowers co,8099
Colorado,CO,8,Montrose County,Montrose CO,4,8,85,2240.61,2242.57,33432,14202,38.413615,-108.151654,5,dry,f,montrose co,8085
Colorado,CO,8,Moffat County,Moffat CO,4,8,81,4742.25,4750.94,13184,5635,40.560035,-108.135333,6,dry,f,moffat co,8081
Colorado,CO,8,Las Animas County,Las Animas CO,4,8,71,4772.63,4775.42,15207,7629,37.239836,-104.384014,4,dry,f,las animas co,8071
Colorado,CO,8,Mineral County,Mineral CO,4,8,79,875.72,877.7,831,1119,37.70062,-106.920831,7,,f,mineral co,8079
Colorado,CO,8,Pitkin County,Pitkin CO,4,8,97,970.42,973.23,14872,10096,39.238843,-106.895404,7,,f,pitkin co,8097
Colorado,CO,8,Douglas County,Douglas CO,4,8,35,840.11,842.75,175766,63333,39.461171,-104.888716,5,dry,f,douglas co,8035
Colorado,CO,8,Summit County,Summit CO,4,8,117,608.16,619.25,23548,24201,39.574638,-106.070643,7,,f,summit co,8117
Colorado,CO,8,Grand County,Grand CO,4,8,49,1846.67,1869.6,12442,10894,40.087637,-106.070981,7,,f,grand co,8049
Colorado,CO,8,Phillips County,Phillips CO,4,8,95,687.62,687.74,4480,2014,40.597517,-102.407552,5,dry,f,phillips co,8095
Colorado,CO,8,Custer County,Custer CO,4,8,27,738.89,739.9,3503,2989,38.128672,-105.416939,6,dry,f,custer co,8027
Colorado,CO,8,Alamosa County,Alamosa CO,4,8,3,722.74,723.53,14966,6088,37.509886,-105.803012,6,dry,f,alamosa co,8003
Colorado,CO,8,Kit Carson County,Kit Carson CO,4,8,63,2160.87,2161.56,8011,3430,39.325815,-102.547752,5,dry,f,kit carson co,8063
Colorado,CO,8,Denver County,Denver CO,4,8,31,153.35,154.94,554636,251435,39.726287,-104.965486,5,dry,f,denver co,8031
Colorado,CO,8,Clear Creek County,Clear Creek CO,4,8,19,395.45,396.46,9322,5128,39.717408,-105.610273,7,,f,clear creek co,8019
Colorado,CO,8,Garfield County,Garfield CO,4,8,45,2947.06,2955.76,43791,17336,39.536156,-107.652813,5,dry,f,garfield co,8045
Colorado,CO,8,San Miguel County,San Miguel CO,4,8,113,1286.5,1288.49,6594,5197,38.022101,-108.372815,6,dry,f,san miguel co,8113
Colorado,CO,8,Teller County,Teller CO,4,8,119,557.06,558.96,20555,10362,38.912363,-105.156719,5,dry,f,teller co,8119
Colorado,CO,8,El Paso County,El Paso CO,4,8,41,2126.45,2129.56,516929,202428,38.865444,-104.748828,5,dry,f,el paso co,8041
Colorado,CO,8,Washington County,Washington CO,4,8,121,2520.98,2524.12,4926,2307,40.082191,-103.143089,5,dry,f,washington co,8121
Colorado,CO,8,Adams County,Adams CO,4,8,1,1191.93,1197.71,363857,132594,39.866716,-104.869954,5,dry,f,adams co,8001
Colorado,CO,8,Gilpin County,Gilpin CO,4,8,47,149.87,150.25,4757,2929,39.841995,-105.495503,5,dry,f,gilpin co,8047
Colorado,CO,8,Morgan County,Morgan CO,4,8,87,1285.36,1293.87,27171,10410,40.26444,-103.796035,5,dry,f,morgan co,8087
Colorado,CO,8,Bent County,Bent CO,4,8,11,1513.9,1541.12,5998,2366,38.070366,-103.062997,5,dry,f,bent co,8011
Connecticut,CT,9,Fairfield County,Fairfield CT,1,1,1,625.8,836.96,882567,339466,41.212896,-73.35482,5,moist,f,fairfield ct,9001
Connecticut,CT,9,Hartford County,Hartford CT,1,1,3,735.44,750.57,857183,353022,41.769967,-72.715449,5,moist,f,hartford ct,9003
Connecticut,CT,9,New Haven County,New Haven CT,1,1,9,605.64,862.02,824008,340732,41.390764,-72.94032,5,moist,f,new haven ct,9009
Connecticut,CT,9,New London County,New London CT,1,1,11,665.91,771.66,259088,110674,41.446109,-72.092949,5,moist,f,new london ct,9011
Connecticut,CT,9,Windham County,Windham CT,1,1,15,512.75,521.47,109091,43959,41.834314,-71.988008,5,moist,f,windham ct,9015
Connecticut,CT,9,Middlesex County,Middlesex CT,1,1,7,369.26,439.07,155071,67285,41.449378,-72.539622,5,moist,f,middlesex ct,9007
Connecticut,CT,9,Litchfield County,Litchfield CT,1,1,5,919.92,944.57,182193,79267,41.754255,-73.212688,5,moist,f,litchfield ct,9005
Connecticut,CT,9,Tolland County,Tolland CT,1,1,13,410.07,417.01,136364,51570,41.853064,-72.358387,5,moist,f,tolland ct,9013
Delaware,DE,10,Sussex County,Sussex DE,3,5,5,937.58,1195.65,156638,93070,38.651424,-75.342268,4,moist,f,sussex de,10005
Delaware,DE,10,New Castle County,New Castle DE,3,5,3,426.27,493.51,500265,199521,39.695612,-75.611707,4,moist,f,new castle de,10003
Delaware,DE,10,Kent County,Kent DE,3,5,1,589.72,800.12,126697,50481,39.092714,-75.560273,4,moist,f,kent de,10001
District of Columbia,DC,11,District of Columbia,District of Columbia DC,3,5,1,61.4,68.34,572059,274845,38.913611,-77.013222,4,moist,f,district of columbia dc,11001
Florida,FL,12,Hillsborough County,Hillsborough FL,3,5,57,1050.91,1266.22,998948,425962,27.966349,-82.412079,2,moist,t,hillsborough fl,12057
Florida,FL,12,Highlands County,Highlands FL,3,5,55,1028.27,1106.28,87366,48846,27.439711,-81.428524,2,moist,t,highlands fl,12055
Florida,FL,12,Polk County,Polk FL,3,5,105,1874.38,2009.99,483924,226376,27.992436,-81.758303,2,moist,t,polk fl,12105
Florida,FL,12,Dixie County,Dixie FL,3,5,29,704.01,863.66,13827,7362,29.607261,-83.119978,2,moist,t,dixie fl,12029
Florida,FL,12,Baker County,Baker FL,3,5,3,585.21,588.89,22259,7592,30.287517,-82.236268,2,moist,t,baker fl,12003
Florida,FL,12,Wakulla County,Wakulla FL,3,5,129,606.66,735.74,22863,9820,30.14462,-84.366174,2,moist,t,wakulla fl,12129
Florida,FL,12,Okaloosa County,Okaloosa FL,3,5,91,935.63,1082,170498,78593,30.642029,-86.562467,2,moist,t,okaloosa fl,12091
Florida,FL,12,Columbia County,Columbia FL,3,5,23,797.05,801.04,56513,23579,30.1839,-82.638781,2,moist,t,columbia fl,12023
Florida,FL,12,Lee County,Lee FL,3,5,71,803.63,1211.89,440888,245405,26.602541,-81.846262,2,moist,t,lee fl,12071
Florida,FL,12,Gulf County,Gulf FL,3,5,45,554.6,744.59,13332,7587,29.940016,-85.267756,2,moist,t,gulf fl,12045
Florida,FL,12,Hamilton County,Hamilton FL,3,5,47,514.86,519.31,13327,4966,30.491893,-82.948765,2,moist,t,hamilton fl,12047
Florida,FL,12,Walton County,Walton FL,3,5,131,1057.56,1238.03,40601,29083,30.637995,-86.155962,2,moist,t,walton fl,12131
Florida,FL,12,Seminole County,Seminole FL,3,5,117,308.2,344.87,365196,147079,28.709909,-81.310831,2,moist,t,seminole fl,12117
Florida,FL,12,Duval County,Duval FL,3,5,31,773.67,918.24,778879,329778,30.320873,-81.638873,2,moist,t,duval fl,12031
Florida,FL,12,Flagler County,Flagler FL,3,5,35,485,570.76,49832,24452,29.518686,-81.247069,2,moist,t,flagler fl,12035
Florida,FL,12,Bay County,Bay FL,3,5,5,763.68,1033.27,148217,78435,30.21917,-85.638788,2,moist,t,bay fl,12005
Florida,FL,12,Osceola County,Osceola FL,3,5,97,1321.9,1506.35,172493,72293,28.231941,-81.31971,2,moist,t,osceola fl,12097
Florida,FL,12,Hendry County,Hendry FL,3,5,51,1152.53,1189.79,36210,12294,26.696403,-81.191622,2,moist,t,hendry fl,12051
Florida,FL,12,Calhoun County,Calhoun FL,3,5,13,567.31,574.34,13017,5250,30.428611,-85.186786,2,moist,t,calhoun fl,12013
Florida,FL,12,Lafayette County,Lafayette FL,3,5,67,542.84,547.92,7022,2660,30.00143,-83.183264,2,moist,t,lafayette fl,12067
Florida,FL,12,Washington County,Washington FL,3,5,133,579.93,615.79,20973,9503,30.630591,-85.638396,2,moist,t,washington fl,12133
Florida,FL,12,Hardee County,Hardee FL,3,5,49,637.3,638.33,26938,9820,27.538231,-81.809106,2,moist,t,hardee fl,12049
Florida,FL,12,Madison County,Madison FL,3,5,79,691.79,715.8,18733,7836,30.443902,-83.4258,2,moist,t,madison fl,12079
Florida,FL,12,Bradford County,Bradford FL,3,5,7,293.13,300.04,26088,9605,29.928876,-82.142368,2,moist,t,bradford fl,12007
Florida,FL,12,Leon County,Leon FL,3,5,73,666.74,701.78,239452,103974,30.462933,-84.260888,2,moist,t,leon fl,12073
Florida,FL,12,Santa Rosa County,Santa Rosa FL,3,5,113,1016.93,1173.57,117743,49119,30.614138,-87.021807,2,moist,t,santa rosa fl,12113
Florida,FL,12,Citrus County,Citrus FL,3,5,17,583.81,773.15,118085,62204,28.894637,-82.469163,2,moist,t,citrus fl,12017
Florida,FL,12,Escambia County,Escambia FL,3,5,33,662.35,875.57,294410,124647,30.502045,-87.277355,2,moist,t,escambia fl,12033
Florida,FL,12,Jefferson County,Jefferson FL,3,5,65,597.74,636.65,12902,5251,30.510187,-83.884229,2,moist,t,jefferson fl,12065
Florida,FL,12,Suwannee County,Suwannee FL,3,5,121,687.64,691.9,34844,15679,30.191684,-82.985391,2,moist,t,suwannee fl,12121
Florida,FL,12,Jackson County,Jackson FL,3,5,63,915.64,954.58,46755,19490,30.769903,-85.241124,2,moist,t,jackson fl,12063
Florida,FL,12,Collier County,Collier FL,3,5,21,2025.34,2304.93,251377,144536,26.155113,-81.671313,2,moist,t,collier fl,12021
Florida,FL,12,Gilchrist County,Gilchrist FL,3,5,41,348.89,355.47,14437,5906,29.709927,-82.832899,2,moist,t,gilchrist fl,12041
Florida,FL,12,Charlotte County,Charlotte FL,3,5,15,693.6,859.12,141627,79758,26.952873,-82.131242,2,moist,t,charlotte fl,12015
Florida,FL,12,Okeechobee County,Okeechobee FL,3,5,93,773.94,891.57,35910,15504,27.32525,-80.870875,2,moist,t,okeechobee fl,12093
Florida,FL,12,Orange County,Orange FL,3,5,95,907.45,1004.19,896344,361349,28.547129,-81.404159,2,moist,t,orange fl,12095
Florida,FL,12,Indian River County,Indian River FL,3,5,61,503.23,616.92,112947,57902,27.695124,-80.454056,2,moist,t,indian river fl,12061
Florida,FL,12,Hernando County,Hernando FL,3,5,53,478.31,589.08,130802,62727,28.521291,-82.481399,2,moist,t,hernando fl,12053
Florida,FL,12,Lake County,Lake FL,3,5,69,953.15,1156.4,210528,102830,28.795924,-81.747696,2,moist,t,lake fl,12069
Florida,FL,12,Manatee County,Manatee FL,3,5,81,741.03,892.75,264002,138128,27.487817,-82.549069,2,moist,t,manatee fl,12081
Florida,FL,12,Liberty County,Liberty FL,3,5,77,835.87,843.16,7021,3156,30.285745,-84.883242,2,moist,t,liberty fl,12077
Florida,FL,12,Union County,Union FL,3,5,125,240.29,249.71,13442,3736,30.02805,-82.367222,2,moist,t,union fl,12125
Florida,FL,12,St. Johns County,St. Johns FL,3,5,109,609.01,821.43,123135,58008,29.881862,-81.358139,2,moist,t,st. johns fl,12109
Florida,FL,12,Holmes County,Holmes FL,3,5,59,482.45,488.71,18564,7998,30.853637,-85.785748,2,moist,t,holmes fl,12059
Florida,FL,12,Glades County,Glades FL,3,5,43,773.64,986.43,10576,5790,26.891982,-81.168365,2,moist,t,glades fl,12043
Florida,FL,12,Brevard County,Brevard FL,3,5,9,1018.19,1556.95,476230,222072,28.220079,-80.685189,2,moist,t,brevard fl,12009
Florida,FL,12,Broward County,Broward FL,3,5,11,1205.4,1319.63,1623018,741043,26.134788,-80.206098,1,moist,t,broward fl,12011
Florida,FL,12,Monroe County,Monroe FL,3,5,87,996.91,3737.15,79589,51617,24.777558,-81.228495,1,moist,t,monroe fl,12087
Florida,FL,12,Sumter County,Sumter FL,3,5,119,545.73,580.31,53345,25195,28.770086,-82.075542,2,moist,t,sumter fl,12119
Florida,FL,12,Martin County,Martin FL,3,5,85,555.62,752.79,126731,65471,27.132403,-80.255862,2,moist,t,martin fl,12085
Florida,FL,12,DeSoto County,DeSoto FL,3,5,27,637.27,639.5,32209,13608,27.201006,-81.871967,2,moist,t,desoto fl,12027
Florida,FL,12,Gadsden County,Gadsden FL,3,5,39,516.13,528.49,45087,17703,30.603309,-84.618328,2,moist,t,gadsden fl,12039
Florida,FL,12,Sarasota County,Sarasota FL,3,5,115,571.55,725.18,325957,182467,27.16493,-82.398881,2,moist,t,sarasota fl,12115
Florida,FL,12,Miami-Dade County,Miami-Dade FL,3,5,86,1946.06,2431.26,2253362,852278,25.756427,-80.302264,1,moist,t,miami-dade fl,12086
Florida,FL,12,Volusia County,Volusia FL,3,5,127,1103.25,1432.44,443343,211938,29.049037,-81.138947,2,moist,t,volusia fl,12127
Florida,FL,12,Franklin County,Franklin FL,3,5,37,544.34,1037.48,11057,7180,29.842944,-84.789354,2,moist,t,franklin fl,12037
Florida,FL,12,Marion County,Marion FL,3,5,83,1578.86,1663.01,258916,122663,29.142855,-82.114602,2,moist,t,marion fl,12083
Florida,FL,12,Levy County,Levy FL,3,5,75,1118.38,1412.32,34450,16570,29.330144,-82.70781,2,moist,t,levy fl,12075
Florida,FL,12,Palm Beach County,Palm Beach FL,3,5,99,1974.11,2386.33,1131184,556428,26.637745,-80.176395,2,moist,t,palm beach fl,12099
Florida,FL,12,Taylor County,Taylor FL,3,5,123,1041.91,1232.01,19256,9646,30.053738,-83.585228,2,moist,t,taylor fl,12123
Florida,FL,12,Pasco County,Pasco FL,3,5,101,744.85,867.95,344765,173717,28.276153,-82.496887,2,moist,t,pasco fl,12101
Florida,FL,12,Clay County,Clay FL,3,5,19,601.11,643.69,140814,53748,30.000401,-81.823736,2,moist,t,clay fl,12019
Florida,FL,12,Putnam County,Putnam FL,3,5,107,721.89,827.16,70423,33870,29.597982,-81.758508,2,moist,t,putnam fl,12107
Florida,FL,12,St. Lucie County,St. Lucie FL,3,5,111,572.45,688.08,192695,91262,27.348246,-80.360875,2,moist,t,st. lucie fl,12111
Florida,FL,12,Alachua County,Alachua FL,3,5,1,874.25,969.12,217955,95113,29.676436,-82.379953,2,moist,t,alachua fl,12001
Florida,FL,12,Nassau County,Nassau FL,3,5,89,651.55,725.86,57663,25917,30.623401,-81.704762,2,moist,t,nassau fl,12089
Florida,FL,12,Pinellas County,Pinellas FL,3,5,103,279.92,607.67,921482,481573,27.889647,-82.727766,2,moist,t,pinellas fl,12103
Georgia,GA,13,Pierce County,Pierce GA,3,5,229,343.25,343.9,15636,6719,31.344717,-82.219039,2,moist,t,pierce ga,13229
Georgia,GA,13,Baldwin County,Baldwin GA,3,5,9,258.45,267.5,44700,17173,33.08261,-83.238994,3,moist,f,baldwin ga,13009
Georgia,GA,13,Walton County,Walton GA,3,5,297,329.18,330.05,60687,22500,33.784274,-83.74132,3,moist,f,walton ga,13297
Georgia,GA,13,Forsyth County,Forsyth GA,3,5,117,225.8,247.37,98407,36505,34.210436,-84.121129,3,moist,f,forsyth ga,13117
Georgia,GA,13,Ware County,Ware GA,3,5,299,902.29,906.31,35483,15831,31.20565,-82.412807,2,moist,t,ware ga,13299
Georgia,GA,13,Taliaferro County,Taliaferro GA,3,5,265,195.39,195.47,2077,1085,33.56832,-82.894881,3,moist,f,taliaferro ga,13265
Georgia,GA,13,Telfair County,Telfair GA,3,5,271,441.09,444.08,11794,5083,32.005072,-82.908006,3,moist,t,telfair ga,13271
Georgia,GA,13,Polk County,Polk GA,3,5,233,311.14,312.13,38127,15059,34.007831,-85.178124,3,moist,f,polk ga,13233
Georgia,GA,13,Toombs County,Toombs GA,3,5,279,366.65,368.64,26067,11371,32.176536,-82.361368,2,moist,t,toombs ga,13279
Georgia,GA,13,Dodge County,Dodge GA,3,5,91,500.29,503.17,19171,8186,32.180813,-83.166914,3,moist,t,dodge ga,13091
Georgia,GA,13,Liberty County,Liberty GA,3,5,179,519.05,602.52,61610,21977,31.809525,-81.538796,2,moist,t,liberty ga,13179
Georgia,GA,13,Chattahoochee County,Chattahoochee GA,3,5,53,248.77,251.17,14882,3316,32.301665,-84.776205,3,moist,t,chattahoochee ga,13053
Georgia,GA,13,Gwinnett County,Gwinnett GA,3,5,135,432.73,436.72,588448,209682,33.967056,-84.058446,3,moist,f,gwinnett ga,13135
Georgia,GA,13,Emanuel County,Emanuel GA,3,5,107,685.79,690.33,21837,9419,32.591877,-82.295417,3,moist,t,emanuel ga,13107
Georgia,GA,13,Decatur County,Decatur GA,3,5,87,596.8,623.16,28240,11968,30.884222,-84.570363,2,moist,t,decatur ga,13087
Georgia,GA,13,Jenkins County,Jenkins GA,3,5,165,349.81,352.45,8575,3907,32.795782,-81.968659,3,moist,t,jenkins ga,13165
Georgia,GA,13,Lamar County,Lamar GA,3,5,171,184.82,185.79,15912,6145,33.07754,-84.157856,3,moist,f,lamar ga,13171
Georgia,GA,13,Habersham County,Habersham GA,3,5,137,278.17,279.2,35902,14634,34.57025,-83.535083,4,moist,f,habersham ga,13137
Georgia,GA,13,Lincoln County,Lincoln GA,3,5,181,211.09,257.28,8348,4514,33.798883,-82.456007,3,moist,f,lincoln ga,13181
Georgia,GA,13,Montgomery County,Montgomery GA,3,5,209,245.33,247.32,8270,3492,32.181044,-82.524801,3,moist,t,montgomery ga,13209
Georgia,GA,13,McIntosh County,McIntosh GA,3,5,191,433.45,574.53,10847,5735,31.472512,-81.408986,2,moist,t,mcintosh ga,13191
Georgia,GA,13,Seminole County,Seminole GA,3,5,253,238.04,256.56,9369,4742,30.956754,-84.868391,2,moist,t,seminole ga,13253
Georgia,GA,13,Jasper County,Jasper GA,3,5,159,370.42,373.58,11426,4806,33.341969,-83.697866,3,moist,f,jasper ga,13159
Georgia,GA,13,Clayton County,Clayton GA,3,5,63,142.62,144.28,236517,86461,33.566178,-84.365597,3,moist,f,clayton ga,13063
Georgia,GA,13,DeKalb County,DeKalb GA,3,5,89,268.21,270.91,665865,261231,33.790944,-84.25768,3,moist,f,dekalb ga,13089
Georgia,GA,13,Catoosa County,Catoosa GA,3,5,47,162.23,162.66,53282,21794,34.925169,-85.173765,4,moist,f,catoosa ga,13047
Georgia,GA,13,Henry County,Henry GA,3,5,151,322.71,324.48,119341,43166,33.470734,-84.183775,3,moist,f,henry ga,13151
Georgia,GA,13,Lowndes County,Lowndes GA,3,5,185,504.22,510.63,92115,36551,30.848527,-83.277179,2,moist,t,lowndes ga,13185
Georgia,GA,13,Harris County,Harris GA,3,5,145,463.69,472.93,23695,10288,32.736893,-84.896839,3,moist,f,harris ga,13145
Georgia,GA,13,Jones County,Jones GA,3,5,169,393.75,395.39,23639,9272,32.987856,-83.539745,3,moist,f,jones ga,13169
Georgia,GA,13,Stephens County,Stephens GA,3,5,257,179.26,184.23,25435,11652,34.556658,-83.288673,4,moist,f,stephens ga,13257
Georgia,GA,13,Coffee County,Coffee GA,3,5,69,598.9,602.61,37413,15610,31.537784,-82.839769,3,moist,t,coffee ga,13069
Georgia,GA,13,Cook County,Cook GA,3,5,75,229.02,233.22,15771,6558,31.154793,-83.429366,2,moist,t,cook ga,13075
Georgia,GA,13,Wheeler County,Wheeler GA,3,5,309,297.72,300.14,6179,2447,32.127572,-82.742799,3,moist,t,wheeler ga,13309
Georgia,GA,13,Hancock County,Hancock GA,3,5,141,473.28,478.76,10076,4287,33.260235,-83.006476,3,moist,f,hancock ga,13141
Georgia,GA,13,Chatham County,Chatham GA,3,5,51,438.11,632.28,232048,99683,32.047559,-81.107165,2,moist,t,chatham ga,13051
Georgia,GA,13,Macon County,Macon GA,3,5,193,403.28,405.95,14074,5495,32.350146,-84.047114,3,moist,t,macon ga,13193
Georgia,GA,13,Tattnall County,Tattnall GA,3,5,267,483.69,488.22,22305,8578,32.049911,-82.0351,2,moist,t,tattnall ga,13267
Georgia,GA,13,Barrow County,Barrow GA,3,5,13,162.17,162.84,46144,17304,33.994618,-83.721626,3,moist,f,barrow ga,13013
Georgia,GA,13,Calhoun County,Calhoun GA,3,5,37,280.18,283.57,6320,2305,31.518459,-84.653985,3,moist,t,calhoun ga,13037
Georgia,GA,13,Burke County,Burke GA,3,5,33,830.47,834.99,22243,8842,33.054157,-82.006464,3,moist,f,burke ga,13033
Georgia,GA,13,Laurens County,Laurens GA,3,5,175,812.27,818.51,44874,19687,32.498107,-82.925022,3,moist,t,laurens ga,13175
Georgia,GA,13,Oglethorpe County,Oglethorpe GA,3,5,221,441.11,442.17,12635,5368,33.877055,-83.111487,3,moist,f,oglethorpe ga,13221
Georgia,GA,13,Carroll County,Carroll GA,3,5,45,498.93,503.83,87268,34067,33.60442,-85.074706,3,moist,f,carroll ga,13045
Georgia,GA,13,Cherokee County,Cherokee GA,3,5,57,423.68,433.99,141903,51937,34.20912,-84.484272,3,moist,f,cherokee ga,13057
Georgia,GA,13,Miller County,Miller GA,3,5,201,283.05,283.72,6383,2770,31.16618,-84.733801,2,moist,t,miller ga,13201
Georgia,GA,13,Baker County,Baker GA,3,5,7,343.22,349.17,4074,1740,31.335757,-84.405081,2,moist,t,baker ga,13007
Georgia,GA,13,Lumpkin County,Lumpkin GA,3,5,187,284.47,284.87,21016,8263,34.541761,-83.99236,4,moist,f,lumpkin ga,13187
Georgia,GA,13,Butts County,Butts GA,3,5,35,186.61,190.01,19522,7380,33.296354,-83.959538,3,moist,f,butts ga,13035
Georgia,GA,13,Bartow County,Bartow GA,3,5,15,459.43,470.11,76019,28751,34.212295,-84.825869,3,moist,f,bartow ga,13015
Georgia,GA,13,Fulton County,Fulton GA,3,5,121,528.66,534.61,816006,348632,33.779605,-84.419327,3,moist,f,fulton ga,13121
Georgia,GA,13,Fayette County,Fayette GA,3,5,113,197.05,199.25,91263,32726,33.428956,-84.505305,3,moist,f,fayette ga,13113
Georgia,GA,13,Houston County,Houston GA,3,5,153,376.75,379.83,110765,44509,32.558055,-83.663234,3,moist,t,houston ga,13153
Georgia,GA,13,Candler County,Candler GA,3,5,43,246.88,248.81,9577,3893,32.407215,-82.057541,3,moist,t,candler ga,13043
Georgia,GA,13,Gordon County,Gordon GA,3,5,129,355.54,358.01,44104,17145,34.498813,-84.903478,4,moist,f,gordon ga,13129
Georgia,GA,13,Dade County,Dade GA,3,5,83,173.98,174.16,15154,6224,34.863615,-85.501646,4,moist,f,dade ga,13083
Georgia,GA,13,Clarke County,Clarke GA,3,5,59,120.79,121.28,101489,42126,33.954747,-83.380111,3,moist,f,clarke ga,13059
Georgia,GA,13,Whitfield County,Whitfield GA,3,5,313,289.99,290.65,83525,30722,34.797393,-84.972833,4,moist,f,whitfield ga,13313
Georgia,GA,13,Grady County,Grady GA,3,5,131,458.12,460.34,23659,9991,30.878254,-84.230092,2,moist,t,grady ga,13131
Georgia,GA,13,Evans County,Evans GA,3,5,109,184.92,186.88,10495,4381,32.161606,-81.907769,2,moist,t,evans ga,13109
Georgia,GA,13,Muscogee County,Muscogee GA,3,5,215,216.26,221,186291,76182,32.490061,-84.942179,3,moist,f,muscogee ga,13215
Georgia,GA,13,Effingham County,Effingham GA,3,5,103,479.41,482.82,37535,14169,32.340699,-81.329476,2,moist,t,effingham ga,13103
Georgia,GA,13,Greene County,Greene GA,3,5,133,388.28,406.24,14406,6653,33.562299,-83.157643,3,moist,f,greene ga,13133
Georgia,GA,13,Mitchell County,Mitchell GA,3,5,205,511.96,513.81,23932,8880,31.20716,-84.171566,2,moist,t,mitchell ga,13205
Georgia,GA,13,Twiggs County,Twiggs GA,3,5,289,360.29,362.95,10590,4291,32.65882,-83.395136,3,moist,t,twiggs ga,13289
Georgia,GA,13,Lanier County,Lanier GA,3,5,173,186.82,199.83,7241,3011,31.032253,-83.064864,2,moist,t,lanier ga,13173
Georgia,GA,13,Spalding County,Spalding GA,3,5,255,197.95,199.6,58417,23001,33.255567,-84.275067,3,moist,f,spalding ga,13255
Georgia,GA,13,Jefferson County,Jefferson GA,3,5,163,527.65,529.56,17266,7221,33.054128,-82.415148,3,moist,f,jefferson ga,13163
Georgia,GA,13,Upson County,Upson GA,3,5,293,325.48,327.64,27597,11616,32.897982,-84.31615,3,moist,f,upson ga,13293
Georgia,GA,13,Berrien County,Berrien GA,3,5,19,452.41,457.78,16235,7100,31.233031,-83.226392,2,moist,t,berrien ga,13019
Georgia,GA,13,Crisp County,Crisp GA,3,5,81,273.82,281.2,21996,9559,31.935851,-83.767514,3,moist,t,crisp ga,13081
Georgia,GA,13,Treutlen County,Treutlen GA,3,5,283,200.66,202.19,6854,2865,32.395152,-82.577844,3,moist,t,treutlen ga,13283
Georgia,GA,13,McDuffie County,McDuffie GA,3,5,189,259.77,266.3,21231,8916,33.46693,-82.477337,3,moist,f,mcduffie ga,13189
Georgia,GA,13,Bleckley County,Bleckley GA,3,5,23,217.39,219.14,11666,4866,32.403725,-83.335104,3,moist,t,bleckley ga,13023
Georgia,GA,13,Morgan County,Morgan GA,3,5,211,349.64,354.6,15457,6128,33.59297,-83.492962,3,moist,f,morgan ga,13211
Georgia,GA,13,Floyd County,Floyd GA,3,5,115,513.13,518.46,90565,36615,34.254872,-85.198384,4,moist,f,floyd ga,13115
Georgia,GA,13,Turner County,Turner GA,3,5,287,286.03,289.85,9504,3916,31.707392,-83.621824,3,moist,t,turner ga,13287
Georgia,GA,13,Brooks County,Brooks GA,3,5,27,493.62,497.77,16450,7118,30.850636,-83.576739,2,moist,t,brooks ga,13027
Georgia,GA,13,Columbia County,Columbia GA,3,5,73,290.01,307.78,89288,33321,33.512018,-82.174583,3,moist,f,columbia ga,13073
Georgia,GA,13,Towns County,Towns GA,3,5,281,166.66,172.01,9319,6282,34.931235,-83.758821,4,moist,f,towns ga,13281
Georgia,GA,13,Hart County,Hart GA,3,5,147,232.21,256.42,22997,11111,34.360857,-82.968511,3,moist,f,hart ga,13147
Georgia,GA,13,Peach County,Peach GA,3,5,225,151.06,151.46,23668,9093,32.573982,-83.835036,3,moist,t,peach ga,13225
Georgia,GA,13,Talbot County,Talbot GA,3,5,263,393.21,394.74,6498,2871,32.691576,-84.544527,3,moist,f,talbot ga,13263
Georgia,GA,13,Hall County,Hall GA,3,5,139,393.66,429.19,139277,51046,34.296799,-83.842959,4,moist,f,hall ga,13139
Georgia,GA,13,Bacon County,Bacon GA,3,5,5,284.95,285.92,10103,4464,31.553477,-82.458418,2,moist,t,bacon ga,13005
Georgia,GA,13,Atkinson County,Atkinson GA,3,5,3,338.04,344.1,7609,3171,31.301054,-82.867921,2,moist,t,atkinson ga,13003
Georgia,GA,13,Pickens County,Pickens GA,3,5,227,232.13,232.78,22983,10687,34.461344,-84.437526,4,moist,f,pickens ga,13227
Georgia,GA,13,Wilkinson County,Wilkinson GA,3,5,319,446.56,452.01,10220,4449,32.83589,-83.226599,3,moist,f,wilkinson ga,13319
Georgia,GA,13,Echols County,Echols GA,3,5,101,404.13,420.8,3754,1482,30.706915,-82.937455,2,moist,t,echols ga,13101
Georgia,GA,13,Paulding County,Paulding GA,3,5,223,313.43,315.06,81678,29274,33.902776,-84.831116,3,moist,f,paulding ga,13223
Georgia,GA,13,Cobb County,Cobb GA,3,5,67,340.15,344.51,607751,237522,33.935535,-84.559283,3,moist,f,cobb ga,13067
Georgia,GA,13,Clay County,Clay GA,3,5,61,195.21,216.99,3357,1925,31.621252,-84.992876999999993,3,moist,t,clay ga,13061
Georgia,GA,13,Bryan County,Bryan GA,3,5,29,441.71,454.49,23417,8675,32.050651,-81.440858,2,moist,t,bryan ga,13029
Georgia,GA,13,Jackson County,Jackson GA,3,5,157,342.36,343,41589,16226,34.146502,-83.555602,3,moist,f,jackson ga,13157
Georgia,GA,13,Tift County,Tift GA,3,5,277,265.05,268.86,38407,15411,31.458076,-83.519231,3,moist,t,tift ga,13277
Georgia,GA,13,Taylor County,Taylor GA,3,5,269,377.44,379.61,8815,3978,32.549925,-84.227022,3,moist,t,taylor ga,13269
Georgia,GA,13,Putnam County,Putnam GA,3,5,237,344.53,360.63,18812,10319,33.318579,-83.354329,3,moist,f,putnam ga,13237
Georgia,GA,13,Camden County,Camden GA,3,5,39,629.91,782.52,43664,16958,30.868376,-81.654945,2,moist,t,camden ga,13039
Georgia,GA,13,Fannin County,Fannin GA,3,5,111,385.74,391.43,19798,11134,34.886639,-84.304223,4,moist,f,fannin ga,13111
Georgia,GA,13,Madison County,Madison GA,3,5,195,283.88,285.57,25730,10520,34.109553,-83.216992,3,moist,f,madison ga,13195
Georgia,GA,13,Dawson County,Dawson GA,3,5,85,211.04,213.93,15999,7163,34.422163,-84.126625,4,moist,f,dawson ga,13085
Georgia,GA,13,Crawford County,Crawford GA,3,5,79,325.01,326.45,12495,4872,32.709958,-83.977831,3,moist,f,crawford ga,13079
Georgia,GA,13,Gilmer County,Gilmer GA,3,5,123,426.69,431.83,23456,11924,34.680909,-84.462723,4,moist,f,gilmer ga,13123
Georgia,GA,13,Sumter County,Sumter GA,3,5,261,485.28,492.54,33200,13700,32.051968,-84.202962,3,moist,t,sumter ga,13261
Georgia,GA,13,Lee County,Lee GA,3,5,177,355.77,362.01,24757,8813,31.745706,-84.178609,3,moist,t,lee ga,13177
Georgia,GA,13,Union County,Union GA,3,5,291,322.55,329.02,17289,10001,34.856402,-84.009393,4,moist,f,union ga,13291
Georgia,GA,13,Quitman County,Quitman GA,3,5,239,151.54,160.92,2598,1773,31.857712,-85.047248,3,moist,t,quitman ga,13239
Georgia,GA,13,White County,White GA,3,5,311,241.58,242.16,19944,9454,34.61523,-83.74257,4,moist,f,white ga,13311
Georgia,GA,13,Coweta County,Coweta GA,3,5,77,442.62,445.98,89215,33182,33.355881,-84.752167,3,moist,f,coweta ga,13077
Georgia,GA,13,Rockdale County,Rockdale GA,3,5,247,130.63,132.13,70111,25082,33.65411,-84.021691,3,moist,f,rockdale ga,13247
Georgia,GA,13,Jeff Davis County,Jeff Davis GA,3,5,161,333.38,335.42,12684,5581,31.830567,-82.619624,2,moist,t,jeff davis ga,13161
Georgia,GA,13,Murray County,Murray GA,3,5,213,344.41,346.88,36506,14320,34.776038,-84.772091,4,moist,f,murray ga,13213
Georgia,GA,13,Appling County,Appling GA,3,5,1,508.51,512.11,17419,7854,31.745647,-82.319207,2,moist,t,appling ga,13001
Georgia,GA,13,Pulaski County,Pulaski GA,3,5,235,247.42,249.89,9588,3944,32.246506,-83.467422,3,moist,t,pulaski ga,13235
Georgia,GA,13,Charlton County,Charlton GA,3,5,49,780.77,782.97,10282,3859,30.782826,-82.050932,2,moist,t,charlton ga,13049
Georgia,GA,13,Glynn County,Glynn GA,3,5,127,422.37,585.17,67568,32636,31.187633,-81.496294,2,moist,t,glynn ga,13127
Georgia,GA,13,Brantley County,Brantley GA,3,5,25,444.4,447.42,14629,6490,31.200683,-81.997335,2,moist,t,brantley ga,13025
Georgia,GA,13,Elbert County,Elbert GA,3,5,105,368.76,374.54,20511,9136,34.129674,-82.874725,3,moist,f,elbert ga,13105
Georgia,GA,13,Glascock County,Glascock GA,3,5,125,144.14,144.45,2556,1192,33.230816,-82.599894,3,moist,f,glascock ga,13125
Georgia,GA,13,Haralson County,Haralson GA,3,5,143,282.11,283.16,25690,10719,33.761217,-85.196688,3,moist,f,haralson ga,13143
Georgia,GA,13,Clinch County,Clinch GA,3,5,65,809.29,824.17,6878,2837,30.945683,-82.716673,2,moist,t,clinch ga,13065
Georgia,GA,13,Rabun County,Rabun GA,3,5,241,371.05,376.99,15050,10210,34.877522,-83.437178,4,moist,f,rabun ga,13241
Georgia,GA,13,Douglas County,Douglas GA,3,5,97,199.3,200.26,92174,34825,33.736475,-84.731971,3,moist,f,douglas ga,13097
Georgia,GA,13,Monroe County,Monroe GA,3,5,207,395.63,397.8,21757,8425,33.032414,-83.919346,3,moist,f,monroe ga,13207
Georgia,GA,13,Early County,Early GA,3,5,99,511.23,516.27,12354,5338,31.311249,-84.936136,3,moist,t,early ga,13099
Georgia,GA,13,Wilkes County,Wilkes GA,3,5,317,471.37,474,10687,5022,33.767503,-82.73763,3,moist,f,wilkes ga,13317
Georgia,GA,13,Irwin County,Irwin GA,3,5,155,356.81,362.73,9931,4149,31.608582,-83.284078,3,moist,t,irwin ga,13155
Georgia,GA,13,Heard County,Heard GA,3,5,149,296.03,301.08,11012,4512,33.308636,-85.118515,3,moist,f,heard ga,13149
Georgia,GA,13,Johnson County,Johnson GA,3,5,167,304.26,306.52,8560,3634,32.690626,-82.6538,3,moist,t,johnson ga,13167
Georgia,GA,13,Marion County,Marion GA,3,5,197,367,367.49,7144,3130,32.369162,-84.537079,3,moist,t,marion ga,13197
Georgia,GA,13,Dooly County,Dooly GA,3,5,93,392.88,397.07,11525,4499,32.16015,-83.793948,3,moist,t,dooly ga,13093
Georgia,GA,13,Oconee County,Oconee GA,3,5,219,185.7,186.14,26225,9528,33.873241,-83.446948,3,moist,f,oconee ga,13219
Georgia,GA,13,Colquitt County,Colquitt GA,3,5,71,552.27,556.55,42053,17554,31.185419,-83.779654,2,moist,t,colquitt ga,13071
Georgia,GA,13,Screven County,Screven GA,3,5,251,648.44,655.59,15374,6853,32.745608,-81.632067,3,moist,t,screven ga,13251
Georgia,GA,13,Troup County,Troup GA,3,5,285,413.9,445.96,58779,23824,33.027833,-85.03409,3,moist,f,troup ga,13285
Georgia,GA,13,Bulloch County,Bulloch GA,3,5,31,682.07,688.84,55983,22742,32.4159,-81.78193,3,moist,t,bulloch ga,13031
Georgia,GA,13,Walker County,Walker GA,3,5,295,446.58,447.03,61053,25577,34.818692,-85.291825,4,moist,f,walker ga,13295
Georgia,GA,13,Franklin County,Franklin GA,3,5,119,263.29,266.37,20285,9303,34.378007,-83.17683,4,moist,f,franklin ga,13119
Georgia,GA,13,Bibb County,Bibb GA,3,5,21,249.96,255.13,153887,67194,32.829689,-83.665205,3,moist,f,bibb ga,13021
Georgia,GA,13,Banks County,Banks GA,3,5,11,233.67,233.87,14422,5808,34.349978,-83.513176,4,moist,f,banks ga,13011
Georgia,GA,13,Wilcox County,Wilcox GA,3,5,315,380.3,383.3,8577,3320,31.962807,-83.450409,3,moist,t,wilcox ga,13315
Georgia,GA,13,Randolph County,Randolph GA,3,5,243,429.25,430.89,7791,3402,31.764054,-84.745351,3,moist,t,randolph ga,13243
Georgia,GA,13,Wayne County,Wayne GA,3,5,305,644.66,648.8,26565,10827,31.601826,-81.92805,2,moist,t,wayne ga,13305
Georgia,GA,13,Long County,Long GA,3,5,183,400.92,403.49,10304,4232,31.764099,-81.763179,2,moist,t,long ga,13183
Georgia,GA,13,Terrell County,Terrell GA,3,5,273,335.37,337.63,10970,4460,31.786049,-84.437251,3,moist,t,terrell ga,13273
Georgia,GA,13,Thomas County,Thomas GA,3,5,275,548.3,552.08,42737,18285,30.872279,-83.94996,2,moist,t,thomas ga,13275
Georgia,GA,13,Newton County,Newton GA,3,5,217,276.43,279.19,62001,23033,33.569094,-83.859105,3,moist,f,newton ga,13217
Georgia,GA,13,Chattooga County,Chattooga GA,3,5,55,313.33,313.55,25470,10677,34.481702,-85.354332,4,moist,f,chattooga ga,13055
Georgia,GA,13,Schley County,Schley GA,3,5,249,167.61,167.82,3766,1612,32.246795,-84.320084,3,moist,t,schley ga,13249
Georgia,GA,13,Meriwether County,Meriwether GA,3,5,199,503.28,505.34,22534,9211,33.002625,-84.652379,3,moist,f,meriwether ga,13199
Georgia,GA,13,Dougherty County,Dougherty GA,3,5,95,329.6,334.64,96065,39656,31.572874,-84.163206,3,moist,t,dougherty ga,13095
Georgia,GA,13,Richmond County,Richmond GA,3,5,245,324.04,328.45,199775,82312,33.429488,-82.028396,3,moist,f,richmond ga,13245
Georgia,GA,13,Washington County,Washington GA,3,5,303,680.34,684.37,21176,8327,32.949364,-82.782607,3,moist,f,washington ga,13303
Georgia,GA,13,Warren County,Warren GA,3,5,301,285.52,286.74,6336,2767,33.416748,-82.663637,3,moist,f,warren ga,13301
Georgia,GA,13,Webster County,Webster GA,3,5,307,209.54,210.26,2390,1115,32.047431,-84.558131,3,moist,t,webster ga,13307
Georgia,GA,13,Stewart County,Stewart GA,3,5,259,458.7,463.23,5252,2354,32.086132,-84.81505,3,moist,t,stewart ga,13259
Georgia,GA,13,Ben Hill County,Ben Hill GA,3,5,17,251.79,254.03,17484,7623,31.731859,-83.251409,3,moist,t,ben hill ga,13017
Georgia,GA,13,Pike County,Pike GA,3,5,231,218.37,219.43,13688,5068,33.089773,-84.377396,3,moist,f,pike ga,13231
Georgia,GA,13,Worth County,Worth GA,3,5,321,569.73,574.58,21967,9086,31.556977,-83.840672,3,moist,t,worth ga,13321
Hawaii,HI,15,Honolulu County,Honolulu HI,4,9,3,599.77,2126.85,876156,315988,21.426126,-158.035861,1,moist,t,honolulu hi,15003
Hawaii,HI,15,Kauai County,Kauai HI,4,9,7,622.44,1266.37,58463,25331,21.999721,-159.477601,1,moist,t,kauai hi,15007
Hawaii,HI,15,Maui County,Maui HI,4,9,9,1159.2,2398.74,128094,56377,20.901025,-156.615839,1,moist,t,maui hi,15009
Hawaii,HI,15,Hawaii County,Hawaii HI,4,9,1,4028.02,5086.7,148677,62674,19.683885,-155.393159,1,moist,t,hawaii hi,15001
Hawaii,HI,15,Kalawao County,Kalawao HI,4,9,5,13.21,52.33,147,172,21.188462,-156.970983,1,moist,t,kalawao hi,15005
Idaho,ID,16,Franklin County,Franklin ID,4,8,41,665.43,668.36,11329,3872,42.153211,-111.855585,6,dry,f,franklin id,16041
Idaho,ID,16,Gem County,Gem ID,4,8,45,562.58,565.75,15181,5888,43.96957,-116.451291,5,dry,f,gem id,16045
Idaho,ID,16,Lemhi County,Lemhi ID,4,8,59,4564.16,4569.5,7806,4154,44.948818,-113.778243,6,dry,f,lemhi id,16059
Idaho,ID,16,Blaine County,Blaine ID,4,8,13,2644.78,2661.02,18991,12186,43.437061,-114.178832,6,dry,f,blaine id,16013
Idaho,ID,16,Adams County,Adams ID,4,8,3,1364.58,1370,3476,1982,44.917815,-116.392914,6,dry,f,adams id,16003
Idaho,ID,16,Lincoln County,Lincoln ID,4,8,63,1205.53,1205.86,4044,1651,42.965518,-114.212667,5,dry,f,lincoln id,16063
Idaho,ID,16,Boise County,Boise ID,4,8,15,1902.46,1906.76,6670,4349,43.955457,-115.858563,6,dry,f,boise id,16015
Idaho,ID,16,Clark County,Clark ID,4,8,33,1764.63,1765.21,1022,521,44.240975,-112.291097,6,dry,f,clark id,16033
Idaho,ID,16,Caribou County,Caribou ID,4,8,29,1766.01,1798.62,7304,3188,42.726467,-111.662032,6,dry,f,caribou id,16029
Idaho,ID,16,Power County,Power ID,4,8,77,1405.57,1442.6,7538,2844,42.770307,-112.814105,5,dry,f,power id,16077
Idaho,ID,16,Bonneville County,Bonneville ID,4,8,19,1868.48,1900.65,82522,30484,43.474131,-111.872559,6,dry,f,bonneville id,16019
Idaho,ID,16,Twin Falls County,Twin Falls ID,4,8,83,1925.03,1928.47,64284,25595,42.48908,-114.611547,5,dry,f,twin falls id,16083
Idaho,ID,16,Owyhee County,Owyhee ID,4,8,73,7677.98,7696.71,10644,4452,42.806872,-116.190499,5,dry,f,owyhee id,16073
Idaho,ID,16,Bear Lake County,Bear Lake ID,4,8,7,971.38,1049.44,6411,3268,42.31055,-111.350221,6,dry,f,bear lake id,16007
Idaho,ID,16,Latah County,Latah ID,4,8,57,1076.65,1076.89,34935,13838,46.78604,-116.802597,5,dry,f,latah id,16057
Idaho,ID,16,Butte County,Butte ID,4,8,23,2232.85,2233.59,2899,1290,43.686343,-113.199944,6,dry,f,butte id,16023
Idaho,ID,16,Cassia County,Cassia ID,4,8,31,2566.45,2580.31,21416,7862,42.357856,-113.638731,5,dry,f,cassia id,16031
Idaho,ID,16,Kootenai County,Kootenai ID,4,8,55,1245.12,1315.69,108685,46607,47.704372,-116.770986,5,dry,f,kootenai id,16055
Idaho,ID,16,Elmore County,Elmore ID,4,8,39,3077.57,3100.51,29130,10527,43.139342,-115.537769,5,dry,f,elmore id,16039
Idaho,ID,16,Idaho County,Idaho ID,4,8,49,8484.88,8502.48,15511,7537,45.893268,-115.888594,5,dry,f,idaho id,16049
Idaho,ID,16,Benewah County,Benewah ID,4,8,9,776.07,783.98,9171,4238,47.240039,-116.637643,5,dry,f,benewah id,16009
Idaho,ID,16,Jefferson County,Jefferson ID,4,8,51,1095.08,1105.55,19155,6287,43.761293,-112.106831,6,dry,f,jefferson id,16051
Idaho,ID,16,Minidoka County,Minidoka ID,4,8,67,759.62,762.98,20174,7498,42.670666,-113.696748,5,dry,f,minidoka id,16067
Idaho,ID,16,Nez Perce County,Nez Perce ID,4,8,69,849.08,856.36,37410,16203,46.410602,-116.862484,5,dry,f,nez perce id,16069
Idaho,ID,16,Camas County,Camas ID,4,8,25,1074.96,1079.02,991,601,43.391502,-114.773345,6,dry,f,camas id,16025
Idaho,ID,16,Jerome County,Jerome ID,4,8,53,599.84,601.87,18342,6713,42.679123,-114.304518,5,dry,f,jerome id,16053
Idaho,ID,16,Lewis County,Lewis ID,4,8,61,479.04,479.81,3747,1795,46.233719,-116.379388,5,dry,f,lewis id,16061
Idaho,ID,16,Fremont County,Fremont ID,4,8,43,1866.76,1895.59,11819,6890,44.175903,-111.510212,6,dry,f,fremont id,16043
Idaho,ID,16,Boundary County,Boundary ID,4,8,21,1268.81,1278.21,9871,4095,48.758435,-116.373036,6,dry,f,boundary id,16021
Idaho,ID,16,Teton County,Teton ID,4,8,81,450.36,450.57,5999,2632,43.720419,-111.144179,6,dry,f,teton id,16081
Idaho,ID,16,Custer County,Custer ID,4,8,37,4925.45,4936.79,4342,2983,44.21163,-114.139033,6,dry,f,custer id,16037
Idaho,ID,16,Oneida County,Oneida ID,4,8,71,1200.33,1201.61,4125,1755,42.174344,-112.410452,6,dry,f,oneida id,16071
Idaho,ID,16,Gooding County,Gooding ID,4,8,47,730.78,733.84,14155,5505,42.873169,-114.781459,5,dry,f,gooding id,16047
Idaho,ID,16,Valley County,Valley ID,4,8,85,3677.82,3733.66,7651,8084,44.655511,-115.920089,6,dry,f,valley id,16085
Idaho,ID,16,Ada County,Ada ID,4,8,1,1054.99,1060.33,300904,118516,43.5603,-116.280069,5,dry,f,ada id,16001
Idaho,ID,16,Washington County,Washington ID,4,8,87,1456.32,1473.54,9977,4138,44.392256,-116.851251,5,dry,f,washington id,16087
Idaho,ID,16,Shoshone County,Shoshone ID,4,8,79,2633.91,2635.5,13771,7057,47.417879,-116.040486,5,dry,f,shoshone id,16079
Idaho,ID,16,Madison County,Madison ID,4,8,65,471.52,473.36,27467,7630,43.818344,-111.74149,6,dry,f,madison id,16065
Idaho,ID,16,Canyon County,Canyon ID,4,8,27,589.72,603.51,131441,47965,43.61814,-116.673633,5,dry,f,canyon id,16027
Idaho,ID,16,Bannock County,Bannock ID,4,8,5,1113.3,1147.46,75565,29102,42.777785,-112.346267,6,dry,f,bannock id,16005
Idaho,ID,16,Clearwater County,Clearwater ID,4,8,35,2461.4,2488.1,8930,4144,46.653353,-115.858748,5,dry,f,clearwater id,16035
Idaho,ID,16,Payette County,Payette ID,4,8,75,407.52,410.19,20578,7949,43.999903,-116.867958,5,dry,f,payette id,16075
Idaho,ID,16,Bingham County,Bingham ID,4,8,11,2094.73,2120.24,41735,14303,43.179755,-112.363605,6,dry,f,bingham id,16011
Idaho,ID,16,Bonner County,Bonner ID,4,8,17,1737.67,1919.59,36835,19646,48.316414,-116.686831,6,dry,f,bonner id,16017
Illinois,IL,17,Whiteside County,Whiteside IL,2,3,195,684.77,697.01,60653,25025,41.77826,-89.867831,5,moist,f,whiteside il,17195
Illinois,IL,17,McHenry County,McHenry IL,2,3,111,603.51,611.13,260077,92908,42.296401,-88.353772,5,moist,f,mchenry il,17111
Illinois,IL,17,Cook County,Cook IL,2,3,31,945.68,1635.04,5376741,2096121,41.837649,-87.767817,5,moist,f,cook il,17031
Illinois,IL,17,Richland County,Richland IL,2,3,159,360.14,362.01,16149,7468,38.7222,-88.094535,4,moist,f,richland il,17159
Illinois,IL,17,Tazewell County,Tazewell IL,2,3,179,648.86,657.89,128485,52973,40.557333,-89.540657,5,moist,f,tazewell il,17179
Illinois,IL,17,Hamilton County,Hamilton IL,2,3,65,435.16,435.84,8621,3983,38.096779,-88.536242,4,moist,f,hamilton il,17065
Illinois,IL,17,Marion County,Marion IL,2,3,121,572.26,575.71,41691,18022,38.614865,-88.993656,4,moist,f,marion il,17121
Illinois,IL,17,St. Clair County,St. Clair IL,2,3,163,663.81,673.95,256082,104446,38.532682,-90.002067,4,moist,f,st. clair il,17163
Illinois,IL,17,Piatt County,Piatt IL,2,3,147,440.02,440.33,16365,6798,39.997207,-88.577414,5,moist,f,piatt il,17147
Illinois,IL,17,Mercer County,Mercer IL,2,3,131,561.02,568.88,16957,7109,41.201226,-90.73032,5,moist,f,mercer il,17131
Illinois,IL,17,DuPage County,DuPage IL,2,3,43,333.61,336.55,904161,335621,41.856029,-88.063587,5,moist,f,dupage il,17043
Illinois,IL,17,Bureau County,Bureau IL,2,3,11,868.56,873.3,35503,15331,41.38642,-89.477767,5,moist,f,bureau il,17011
Illinois,IL,17,Clark County,Clark IL,2,3,23,501.5,504.88,17008,7816,39.345598,-87.802973,5,moist,f,clark il,17023
Illinois,IL,17,Saline County,Saline IL,2,3,165,383.31,386.98,26733,12360,37.753831,-88.54084,4,moist,f,saline il,17165
Illinois,IL,17,La Salle County,La Salle IL,2,3,99,1134.92,1148.04,111509,46438,41.332155,-88.904285,5,moist,f,la salle il,17099
Illinois,IL,17,Boone County,Boone IL,2,3,7,281.27,281.94,41786,15414,42.298948,-88.834228,5,moist,f,boone il,17007
Illinois,IL,17,Washington County,Washington IL,2,3,189,562.61,564.12,15148,6385,38.366222,-89.376927,4,moist,f,washington il,17189
Illinois,IL,17,Macoupin County,Macoupin IL,2,3,117,863.57,867.61,49019,21097,39.231191,-89.877556,4,moist,f,macoupin il,17117
Illinois,IL,17,Ford County,Ford IL,2,3,53,485.9,486.42,14241,6060,40.552455,-88.223413,5,moist,f,ford il,17053
Illinois,IL,17,Knox County,Knox IL,2,3,95,716.28,719.7,55836,23717,40.939735,-90.290825,5,moist,f,knox il,17095
Illinois,IL,17,Williamson County,Williamson IL,2,3,199,423.41,444.38,61296,27703,37.74923,-88.972314,4,moist,f,williamson il,17199
Illinois,IL,17,Champaign County,Champaign IL,2,3,19,996.81,997.53,179669,75280,40.136824,-88.216752,5,moist,f,champaign il,17019
Illinois,IL,17,Pulaski County,Pulaski IL,2,3,153,200.79,203.33,7348,3353,37.197155,-89.132572,4,moist,f,pulaski il,17153
Illinois,IL,17,Putnam County,Putnam IL,2,3,155,159.8,172.24,6086,2888,41.226096,-89.274381,5,moist,f,putnam il,17155
Illinois,IL,17,Clinton County,Clinton IL,2,3,27,474.23,503.48,35535,13805,38.598095,-89.436849,4,moist,f,clinton il,17027
Illinois,IL,17,Wabash County,Wabash IL,2,3,185,223.47,227.76,12937,5758,38.430342,-87.816801,4,moist,f,wabash il,17185
Illinois,IL,17,Shelby County,Shelby IL,2,3,173,758.51,768.05,22893,10060,39.385719,-88.799105,4,moist,f,shelby il,17173
Illinois,IL,17,Alexander County,Alexander IL,2,3,3,236.38,252.54,9590,4591,37.146816,-89.28948,4,moist,f,alexander il,17003
Illinois,IL,17,Christian County,Christian IL,2,3,21,709.06,715.71,35372,14992,39.528077,-89.262544,4,moist,f,christian il,17021
Illinois,IL,17,Kankakee County,Kankakee IL,2,3,91,676.75,681.44,103833,40610,41.137091,-87.84234,5,moist,f,kankakee il,17091
Illinois,IL,17,Perry County,Perry IL,2,3,145,440.96,446.81,23094,9457,38.054426,-89.349016,4,moist,f,perry il,17145
Illinois,IL,17,Johnson County,Johnson IL,2,3,87,344.63,348.88,12878,5046,37.466033,-88.894637,4,moist,f,johnson il,17087
Illinois,IL,17,Mason County,Mason IL,2,3,125,538.94,563.37,16038,7033,40.260702,-89.913299,5,moist,f,mason il,17125
Illinois,IL,17,Scott County,Scott IL,2,3,171,250.92,252.77,5537,2464,39.647927,-90.478407,5,moist,f,scott il,17171
Illinois,IL,17,Calhoun County,Calhoun IL,2,3,13,253.82,283.69,5084,2681,39.168969,-90.653186,5,moist,f,calhoun il,17013
Illinois,IL,17,McDonough County,McDonough IL,2,3,109,589.27,590.02,32913,13289,40.472379,-90.670355,5,moist,f,mcdonough il,17109
Illinois,IL,17,Jo Daviess County,Jo Daviess IL,2,3,85,601.08,618.72,22289,12003,42.393139,-90.235822,5,moist,f,jo daviess il,17085
Illinois,IL,17,Hardin County,Hardin IL,2,3,69,178.33,181.53,4800,2494,37.470687,-88.281762,4,moist,f,hardin il,17069
Illinois,IL,17,Moultrie County,Moultrie IL,2,3,139,335.6,344.47,14287,5743,39.635412,-88.62634,5,moist,f,moultrie il,17139
Illinois,IL,17,Pike County,Pike IL,2,3,149,830.3,848.87,17384,8011,39.629292,-90.886468,5,moist,f,pike il,17149
Illinois,IL,17,Monroe County,Monroe IL,2,3,133,388.29,397.71,27619,10749,38.329154,-90.175233,4,moist,f,monroe il,17133
Illinois,IL,17,Douglas County,Douglas IL,2,3,41,416.86,417.42,19922,8005,39.769979,-88.236661,5,moist,f,douglas il,17041
Illinois,IL,17,Coles County,Coles IL,2,3,29,508.29,510.07,53196,22768,39.507634,-88.259377,5,moist,f,coles il,17029
Illinois,IL,17,Fayette County,Fayette IL,2,3,51,716.49,725.36,21802,9053,39.000305,-88.990889,4,moist,f,fayette il,17051
Illinois,IL,17,Brown County,Brown IL,2,3,9,305.65,307.24,6950,2456,39.950254,-90.740237,5,moist,f,brown il,17009
Illinois,IL,17,Winnebago County,Winnebago IL,2,3,201,513.74,519.27,278418,114404,42.311119,-89.08163,5,moist,f,winnebago il,17201
Illinois,IL,17,Bond County,Bond IL,2,3,5,380.2,382.67,17633,6690,38.882098,-89.43485,4,moist,f,bond il,17005
Illinois,IL,17,Peoria County,Peoria IL,2,3,143,619.52,630.89,183433,78204,40.752492,-89.665063,5,moist,f,peoria il,17143
Illinois,IL,17,McLean County,McLean IL,2,3,113,1183.53,1186.29,150433,59972,40.495251,-88.883582,5,moist,f,mclean il,17113
Illinois,IL,17,Randolph County,Randolph IL,2,3,157,578.42,597.26,33893,13328,38.079211,-89.796877,4,moist,f,randolph il,17157
Illinois,IL,17,Woodford County,Woodford IL,2,3,203,527.95,542.74,35469,13487,40.783629,-89.225144,5,moist,f,woodford il,17203
Illinois,IL,17,Montgomery County,Montgomery IL,2,3,135,703.8,709.75,30652,12525,39.207454,-89.500917,4,moist,f,montgomery il,17135
Illinois,IL,17,Ogle County,Ogle IL,2,3,141,758.83,763.27,51032,20420,42.025711,-89.308985,5,moist,f,ogle il,17141
Illinois,IL,17,Fulton County,Fulton IL,2,3,57,865.62,882.59,38250,16240,40.499297,-90.177649,5,moist,f,fulton il,17057
Illinois,IL,17,Warren County,Warren IL,2,3,187,542.52,543.17,18735,7787,40.876975,-90.622695,5,moist,f,warren il,17187
Illinois,IL,17,Clay County,Clay IL,2,3,25,469.25,469.84,14560,6394,38.737029,-88.47091,4,moist,f,clay il,17025
Illinois,IL,17,Marshall County,Marshall IL,2,3,123,386.06,398.52,13180,5914,41.048508,-89.295467,5,moist,f,marshall il,17123
Illinois,IL,17,Massac County,Massac IL,2,3,127,239.05,242.12,15161,6951,37.203007,-88.742654,4,moist,f,massac il,17127
Illinois,IL,17,Union County,Union IL,2,3,181,416.16,422.13,18293,7894,37.461737,-89.248116,4,moist,f,union il,17181
Illinois,IL,17,Iroquois County,Iroquois IL,2,3,75,1116.43,1118.03,31334,13362,40.749055,-87.833796,5,moist,f,iroquois il,17075
Illinois,IL,17,Will County,Will IL,2,3,197,836.94,849.39,502266,175524,41.527431,-88.02984,5,moist,f,will il,17197
Illinois,IL,17,Franklin County,Franklin IL,2,3,55,412.08,431.4,39018,18105,37.974494,-88.955152,4,moist,f,franklin il,17055
Illinois,IL,17,Lee County,Lee IL,2,3,103,725.36,729.29,36062,14310,41.774245,-89.352013,5,moist,f,lee il,17103
Illinois,IL,17,Macon County,Macon IL,2,3,115,580.52,585.38,114706,50241,39.853136,-88.953227,5,moist,f,macon il,17115
Illinois,IL,17,Adams County,Adams IL,2,3,1,856.63,871.28,68277,29386,39.965452,-91.268051,5,moist,f,adams il,17001
Illinois,IL,17,Kane County,Kane IL,2,3,89,520.44,524.08,404119,138998,41.918229,-88.338441,5,moist,f,kane il,17089
Illinois,IL,17,Livingston County,Livingston IL,2,3,105,1043.76,1045.43,39678,15297,40.903217,-88.565955,5,moist,f,livingston il,17105
Illinois,IL,17,Kendall County,Kendall IL,2,3,93,320.58,322.67,54544,19519,41.641529,-88.424929,5,moist,f,kendall il,17093
Illinois,IL,17,White County,White IL,2,3,193,494.87,501.7,15371,7393,38.104078,-88.180096,4,moist,f,white il,17193
Illinois,IL,17,Jersey County,Jersey IL,2,3,83,369.16,377.02,21668,8918,39.083608,-90.342138,5,moist,f,jersey il,17083
Illinois,IL,17,Sangamon County,Sangamon IL,2,3,167,868.18,877.01,188951,85459,39.763854,-89.646499,5,moist,f,sangamon il,17167
Illinois,IL,17,Carroll County,Carroll IL,2,3,15,444.21,465.77,16674,7945,42.076584,-89.953145,5,moist,f,carroll il,17015
Illinois,IL,17,Crawford County,Crawford IL,2,3,33,443.53,445.74,20452,8785,39.009225,-87.757873,4,moist,f,crawford il,17033
Illinois,IL,17,Schuyler County,Schuyler IL,2,3,169,437.31,441.39,7189,3304,40.143586,-90.5791,5,moist,f,schuyler il,17169
Illinois,IL,17,Rock Island County,Rock Island IL,2,3,161,426.75,451.16,149374,64489,41.491433,-90.507532,5,moist,f,rock island il,17161
Illinois,IL,17,Jasper County,Jasper IL,2,3,79,494.4,498.02,10117,4294,39.009625,-88.140296,4,moist,f,jasper il,17079
Illinois,IL,17,DeKalb County,DeKalb IL,2,3,37,634.16,634.97,88969,32988,41.897263,-88.739318,5,moist,f,dekalb il,17037
Illinois,IL,17,Hancock County,Hancock IL,2,3,67,794.62,814.54,20121,8909,40.424406,-91.187696,5,moist,f,hancock il,17067
Illinois,IL,17,Cumberland County,Cumberland IL,2,3,35,346.02,347,11253,4876,39.272064,-88.263215,5,moist,f,cumberland il,17035
Illinois,IL,17,Logan County,Logan IL,2,3,107,618.14,619.01,31183,11872,40.143596,-89.365106,5,moist,f,logan il,17107
Illinois,IL,17,Pope County,Pope IL,2,3,151,370.86,374.64,4413,2351,37.4114,-88.573261,4,moist,f,pope il,17151
Illinois,IL,17,Vermilion County,Vermilion IL,2,3,183,899.08,902.14,83919,36349,40.156797,-87.692434,5,moist,f,vermilion il,17183
Illinois,IL,17,Madison County,Madison IL,2,3,119,725.02,740.35,258941,108942,38.812515,-90.018837,4,moist,f,madison il,17119
Illinois,IL,17,Greene County,Greene IL,2,3,61,543.09,546.34,14761,6332,39.36954,-90.383013,5,moist,f,greene il,17061
Illinois,IL,17,Edgar County,Edgar IL,2,3,45,623.55,624.18,19704,8611,39.668118,-87.746849,5,moist,f,edgar il,17045
Illinois,IL,17,Lawrence County,Lawrence IL,2,3,101,371.98,373.94,15452,7014,38.72377,-87.720031,4,moist,f,lawrence il,17101
Illinois,IL,17,Morgan County,Morgan IL,2,3,137,568.76,572.26,36616,15291,39.712954,-90.215325000000007,5,moist,f,morgan il,17137
Illinois,IL,17,De Witt County,De Witt IL,2,3,39,397.58,405.15,16798,7282,40.178001,-88.914787,5,moist,f,de witt il,17039
Illinois,IL,17,Stark County,Stark IL,2,3,175,287.94,288.21,6332,2725,41.097764,-89.8023,5,moist,f,stark il,17175
Illinois,IL,17,Gallatin County,Gallatin IL,2,3,59,323.73,328.41,6445,3071,37.782056,-88.233803,4,moist,f,gallatin il,17059
Illinois,IL,17,Lake County,Lake IL,2,3,97,447.56,1367.95,644356,225919,42.313322,-87.983801,5,moist,f,lake il,17097
Illinois,IL,17,Edwards County,Edwards IL,2,3,47,222.35,222.66,6971,3199,38.398083,-88.048393,4,moist,f,edwards il,17047
Illinois,IL,17,Grundy County,Grundy IL,2,3,63,419.9,430.42,37535,15040,41.309747,-88.366716,5,moist,f,grundy il,17063
Illinois,IL,17,Effingham County,Effingham IL,2,3,49,478.7,479.9,34264,13959,39.069653,-88.59228,4,moist,f,effingham il,17049
Illinois,IL,17,Wayne County,Wayne IL,2,3,191,713.9,715.56,17151,7950,38.419189,-88.401393,4,moist,f,wayne il,17191
Illinois,IL,17,Jackson County,Jackson IL,2,3,77,588.12,602.53,59612,26844,37.769401,-89.314721,4,moist,f,jackson il,17077
Illinois,IL,17,Henry County,Henry IL,2,3,73,823.21,825.6,51020,21270,41.351751,-90.120495,5,moist,f,henry il,17073
Illinois,IL,17,Menard County,Menard IL,2,3,129,314.25,315.37,12486,5285,40.032792,-89.811751,5,moist,f,menard il,17129
Illinois,IL,17,Stephenson County,Stephenson IL,2,3,177,564.18,564.72,48979,21713,42.340808,-89.642608,5,moist,f,stephenson il,17177
Illinois,IL,17,Henderson County,Henderson IL,2,3,71,378.81,395.12,8213,4126,40.833378,-90.94634,5,moist,f,henderson il,17071
Illinois,IL,17,Cass County,Cass IL,2,3,17,375.9,383.73,13695,5784,39.975926,-90.269918,5,moist,f,cass il,17017
Illinois,IL,17,Jefferson County,Jefferson IL,2,3,81,570.96,583.71,40045,16990,38.310378,-88.915252,4,moist,f,jefferson il,17081
Indiana,IN,18,Daviess County,Daviess IN,2,3,27,430.66,436.86,29820,11898,38.698934,-87.106867,4,moist,f,daviess in,18027
Indiana,IN,18,Vanderburgh County,Vanderburgh IN,2,3,163,234.57,235.74,171922,76300,37.989892,-87.556964,4,moist,f,vanderburgh in,18163
Indiana,IN,18,Putnam County,Putnam IN,2,3,133,480.31,482.58,36019,13505,39.660303999999996,-86.840246,5,moist,f,putnam in,18133
Indiana,IN,18,Delaware County,Delaware IN,2,3,35,393.29,395.92,118769,51032,40.211893,-85.396077,5,moist,f,delaware in,18035
Indiana,IN,18,LaPorte County,La Porte IN,2,3,91,598.24,613.04,110106,45621,41.599217,-86.779261,5,moist,f,la porte in,18091
Indiana,IN,18,Kosciusko County,Kosciusko IN,2,3,85,537.5,554.34,74057,32188,41.264505,-85.833206,5,moist,f,kosciusko in,18085
Indiana,IN,18,Marshall County,Marshall IN,2,3,99,444.27,449.92,45128,18099,41.331349,-86.268543,5,moist,f,marshall in,18099
Indiana,IN,18,Decatur County,Decatur IN,2,3,31,372.6,373.42,24555,9992,39.317235,-85.501652000000007,5,moist,f,decatur in,18031
Indiana,IN,18,Monroe County,Monroe IN,2,3,105,394.35,411.32,120563,50846,39.161997,-86.540369,4,moist,f,monroe in,18105
Indiana,IN,18,Boone County,Boone IN,2,3,11,422.85,423.28,46107,17929,40.03208,-86.450455,5,moist,f,boone in,18011
Indiana,IN,18,Washington County,Washington IN,2,3,175,514.42,516.53,27223,11191,38.589628,-86.096807,4,moist,f,washington in,18175
Indiana,IN,18,Jay County,Jay IN,2,3,75,383.64,383.82,21806,9074,40.425659,-85.030582,5,moist,f,jay in,18075
Indiana,IN,18,Howard County,Howard IN,2,3,67,293.07,293.93,84964,37604,40.475438,-86.126407,5,moist,f,howard in,18067
Indiana,IN,18,Fountain County,Fountain IN,2,3,45,395.69,397.92,17954,7692,40.13916,-87.257568,5,moist,f,fountain in,18045
Indiana,IN,18,Clark County,Clark IN,2,3,19,375.04,376.2,96472,41176,38.386482,-85.727465,4,moist,f,clark in,18019
Indiana,IN,18,Warren County,Warren IN,2,3,171,364.88,366.6,8419,3477,40.311628,-87.36268,5,moist,f,warren in,18171
Indiana,IN,18,Franklin County,Franklin IN,2,3,47,386,391.34,22151,8596,39.416701,-85.069631,5,moist,f,franklin in,18047
Indiana,IN,18,Montgomery County,Montgomery IN,2,3,107,504.51,505.34,37629,15678,40.03201,-86.887139,5,moist,f,montgomery in,18107
Indiana,IN,18,Elkhart County,Elkhart IN,2,3,39,463.81,467.85,182791,69791,41.626089,-85.899404,5,moist,f,elkhart in,18039
Indiana,IN,18,Fayette County,Fayette IN,2,3,41,214.96,215.12,25588,10981,39.644201,-85.157456,5,moist,f,fayette in,18041
Indiana,IN,18,Pike County,Pike IN,2,3,125,336.18,341.08,12837,5611,38.411987,-87.237138,4,moist,f,pike in,18125
Indiana,IN,18,Vermillion County,Vermillion IN,2,3,165,256.89,259.94,16788,7405,39.802926,-87.443879,5,moist,f,vermillion in,18165
Indiana,IN,18,Knox County,Knox IN,2,3,83,515.83,524.06,39256,17305,38.697416,-87.418937,4,moist,f,knox in,18083
Indiana,IN,18,Grant County,Grant IN,2,3,53,414.03,414.83,73403,30560,40.52094,-85.648911,5,moist,f,grant in,18053
Indiana,IN,18,Hancock County,Hancock IN,2,3,59,306.12,306.73,55391,21750,39.820991,-85.790803,5,moist,f,hancock in,18059
Indiana,IN,18,Steuben County,Steuben IN,2,3,151,308.72,322.48,33214,17337,41.651551,-85.009314,5,moist,f,steuben in,18151
Indiana,IN,18,Whitley County,Whitley IN,2,3,183,335.52,337.9,30707,12545,41.152809,-85.502004,5,moist,f,whitley in,18183
Indiana,IN,18,Parke County,Parke IN,2,3,121,444.77,450.1,17241,7539,39.763805,-87.219238,5,moist,f,parke in,18121
Indiana,IN,18,Clay County,Clay IN,2,3,21,357.62,360.39,26556,11097,39.439101,-87.119952,5,moist,f,clay in,18021
Indiana,IN,18,Owen County,Owen IN,2,3,119,385.18,387.83,21786,9853,39.30795,-86.818225,5,moist,f,owen in,18119
Indiana,IN,18,Martin County,Martin IN,2,3,101,336.14,340.53,10369,4729,38.724504,-86.833305,4,moist,f,martin in,18101
Indiana,IN,18,Union County,Union IN,2,3,161,161.55,165.25,7349,3077,39.607816,-84.917283,5,moist,f,union in,18161
Indiana,IN,18,Johnson County,Johnson IN,2,3,81,320.19,321.56,115209,45095,39.513686,-86.100823,5,moist,f,johnson in,18081
Indiana,IN,18,Fulton County,Fulton IN,2,3,49,368.51,371.37,20511,9123,41.057846,-86.241036,5,moist,f,fulton in,18049
Indiana,IN,18,Blackford County,Blackford IN,2,3,9,165.1,165.4,14048,6155,40.462132,-85.340883,5,moist,f,blackford in,18009
Indiana,IN,18,Porter County,Porter IN,2,3,127,418.11,521.61,146798,57616,41.52351,-87.086655,5,moist,f,porter in,18127
Indiana,IN,18,Starke County,Starke IN,2,3,149,309.31,312.31,23556,10201,41.271927,-86.654352,5,moist,f,starke in,18149
Indiana,IN,18,St. Joseph County,St. Joseph IN,2,3,141,457.34,460.97,265559,107013,41.664783,-86.241933,5,moist,f,st. joseph in,18141
Indiana,IN,18,Clinton County,Clinton IN,2,3,23,405.1,405.28,33866,13267,40.288872,-86.496578,5,moist,f,clinton in,18023
Indiana,IN,18,Miami County,Miami IN,2,3,103,375.62,377.36,36082,15299,40.753246,-86.053583,5,moist,f,miami in,18103
Indiana,IN,18,Randolph County,Randolph IN,2,3,135,452.83,453.23,27401,11775,40.164503,-85.004604,5,moist,f,randolph in,18135
Indiana,IN,18,Jasper County,Jasper IN,2,3,73,559.87,561.22,30043,11236,41.02205,-87.133815,5,moist,f,jasper in,18073
Indiana,IN,18,Dubois County,Dubois IN,2,3,37,430.09,435.23,39674,15511,38.350091,-86.900551,4,moist,f,dubois in,18037
Indiana,IN,18,Scott County,Scott IN,2,3,143,190.39,192.73,22960,9737,38.695829,-85.765904,4,moist,f,scott in,18143
Indiana,IN,18,Perry County,Perry IN,2,3,123,381.39,386.34,18899,8223,38.012306,-86.695887,4,moist,f,perry in,18123
Indiana,IN,18,Adams County,Adams IN,2,3,1,339.36,339.93,33625,12404,40.744555,-84.940506,5,moist,f,adams in,18001
Indiana,IN,18,LaGrange County,Lagrange IN,2,3,87,379.56,386.72,34909,12938,41.645075,-85.428214,5,moist,f,lagrange in,18087
Indiana,IN,18,Orange County,Orange IN,2,3,117,399.52,408.2,19306,8348,38.561967,-86.517884,4,moist,f,orange in,18117
Indiana,IN,18,Switzerland County,Switzerland IN,2,3,155,221.18,223.52,9065,4226,38.820999,-84.989245,4,moist,f,switzerland in,18155
Indiana,IN,18,Ripley County,Ripley IN,2,3,137,446.36,447.91,26523,10482,39.150121,-85.241433,4,moist,f,ripley in,18137
Indiana,IN,18,Rush County,Rush IN,2,3,139,408.28,408.62,18261,7337,39.621652,-85.475672,5,moist,f,rush in,18139
Indiana,IN,18,Greene County,Greene IN,2,3,55,541.73,545.91,33157,15053,39.051476,-87.037411,4,moist,f,greene in,18055
Indiana,IN,18,Jefferson County,Jefferson IN,2,3,77,361.37,362.94,31705,13386,38.766912,-85.436056,4,moist,f,jefferson in,18077
Indiana,IN,18,Gibson County,Gibson IN,2,3,51,488.78,499.05,32500,14125,38.3177,-87.558364,4,moist,f,gibson in,18051
Indiana,IN,18,Shelby County,Shelby IN,2,3,145,412.64,413.11,43445,17633,39.532818,-85.779679,5,moist,f,shelby in,18145
Indiana,IN,18,Wabash County,Wabash IN,2,3,169,413.17,421.07,34960,14034,40.856664,-85.806219,5,moist,f,wabash in,18169
Indiana,IN,18,Crawford County,Crawford IN,2,3,25,305.68,308.85,10743,5138,38.30613,-86.437222,4,moist,f,crawford in,18025
Indiana,IN,18,Morgan County,Morgan IN,2,3,109,406.47,409.39,66689,25908,39.499253,-86.412857,5,moist,f,morgan in,18109
Indiana,IN,18,Posey County,Posey IN,2,3,129,408.5,419.45,27061,11076,38.025891,-87.84877,4,moist,f,posey in,18129
Indiana,IN,18,Lake County,Lake IN,2,3,89,496.98,626.34,484564,194992,41.529603,-87.395253,5,moist,f,lake in,18089
Indiana,IN,18,Newton County,Newton IN,2,3,111,401.85,403.53,14566,5726,40.951375,-87.402193,5,moist,f,newton in,18111
Indiana,IN,18,Huntington County,Huntington IN,2,3,69,382.59,387.94,38075,15269,40.836839,-85.477295,5,moist,f,huntington in,18069
Indiana,IN,18,White County,White IN,2,3,181,505.24,508.8,25267,12083,40.748174,-86.831515,5,moist,f,white in,18181
Indiana,IN,18,Brown County,Brown IN,2,3,13,312.26,316.62,14957,7163,39.228538,-86.218138,4,moist,f,brown in,18013
Indiana,IN,18,Marion County,Marion IN,2,3,97,396.25,403.04,860454,387183,39.792792,-86.14181,5,moist,f,marion in,18097
Indiana,IN,18,Dearborn County,Dearborn IN,2,3,29,305.21,307.05,46109,17791,39.135699,-84.943303,4,moist,f,dearborn in,18029
Indiana,IN,18,Jennings County,Jennings IN,2,3,79,377.22,378.35,27554,11469,39.00081,-85.626827,4,moist,f,jennings in,18079
Indiana,IN,18,Vigo County,Vigo IN,2,3,167,403.29,410.47,105848,45203,39.456887,-87.391268,5,moist,f,vigo in,18167
Indiana,IN,18,Noble County,Noble IN,2,3,113,411.11,417.61,46275,18233,41.408138,-85.413889,5,moist,f,noble in,18113
Indiana,IN,18,Wayne County,Wayne IN,2,3,177,403.57,404.34,71097,30468,39.840126,-84.986884,5,moist,f,wayne in,18177
Indiana,IN,18,Warrick County,Warrick IN,2,3,173,384.07,390.86,52383,20546,38.047646,-87.304258,4,moist,f,warrick in,18173
Indiana,IN,18,Hendricks County,Hendricks IN,2,3,63,408.39,408.88,104093,39229,39.769192,-86.452581,5,moist,f,hendricks in,18063
Indiana,IN,18,Allen County,Allen IN,2,3,3,657.25,660.1,331849,138905,41.090284,-85.100068,5,moist,f,allen in,18003
Indiana,IN,18,Bartholomew County,Bartholomew IN,2,3,5,406.84,409.36,71435,29853,39.211509,-85.892211,5,moist,f,bartholomew in,18005
Indiana,IN,18,Carroll County,Carroll IN,2,3,15,372.26,375.05,20165,8675,40.580759,-86.584006,5,moist,f,carroll in,18015
Indiana,IN,18,Floyd County,Floyd IN,2,3,43,148,148.31,70823,29087,38.316931,-85.863288,4,moist,f,floyd in,18043
Indiana,IN,18,DeKalb County,De Kalb IN,2,3,33,362.88,363.84,40285,16144,41.388868,-85.017127,5,moist,f,de kalb in,18033
Indiana,IN,18,Harrison County,Harrison IN,2,3,61,485.22,486.88,34325,13699,38.213797,-86.107584,4,moist,f,harrison in,18061
Indiana,IN,18,Spencer County,Spencer IN,2,3,147,398.69,401.23,20391,8333,38.024372,-87.013205,4,moist,f,spencer in,18147
Indiana,IN,18,Pulaski County,Pulaski IN,2,3,131,433.68,434.57,13755,5918,41.045238,-86.690363,5,moist,f,pulaski in,18131
Indiana,IN,18,Madison County,Madison IN,2,3,95,452.13,452.91,133358,56939,40.14594,-85.719201,5,moist,f,madison in,18095
Indiana,IN,18,Sullivan County,Sullivan IN,2,3,153,447.2,454.04,21751,8804,39.100806,-87.39542,4,moist,f,sullivan in,18153
Indiana,IN,18,Benton County,Benton IN,2,3,7,406.31,406.4,9421,3818,40.579571,-87.314706,5,moist,f,benton in,18007
Indiana,IN,18,Tippecanoe County,Tippecanoe IN,2,3,157,499.79,503.07,148955,58343,40.409485,-86.88088,5,moist,f,tippecanoe in,18157
Indiana,IN,18,Hamilton County,Hamilton IN,2,3,57,397.94,402.73,182740,69478,40.031229,-86.065824,5,moist,f,hamilton in,18057
Indiana,IN,18,Ohio County,Ohio IN,2,3,115,86.72,87.47,5623,2424,38.948067,-84.940039,4,moist,f,ohio in,18115
Indiana,IN,18,Henry County,Henry IN,2,3,65,392.93,394.9,48508,20592,39.923532,-85.405985,5,moist,f,henry in,18065
Indiana,IN,18,Wells County,Wells IN,2,3,179,369.96,370.41,27600,10970,40.743854,-85.210324,5,moist,f,wells in,18179
Indiana,IN,18,Lawrence County,Lawrence IN,2,3,93,448.83,452.07,45922,20560,38.840482,-86.485148,4,moist,f,lawrence in,18093
Indiana,IN,18,Jackson County,Jackson IN,2,3,71,509.31,513.75,41335,17137,38.917112,-85.979889,4,moist,f,jackson in,18071
Indiana,IN,18,Cass County,Cass IN,2,3,17,412.87,414.92,40930,16620,40.746875,-86.345234,5,moist,f,cass in,18017
Indiana,IN,18,Tipton County,Tipton IN,2,3,159,260.39,260.41,16577,6848,40.305617,-86.044956,5,moist,f,tipton in,18159
Iowa,IA,19,Fayette County,Fayette IA,2,4,65,730.92,731.45,22008,9505,42.83759,-91.85019,6,moist,f,fayette ia,19065
Iowa,IA,19,Adams County,Adams IA,2,4,3,423.54,425.41,4482,2109,41.022252,-94.711809,5,moist,f,adams ia,19003
Iowa,IA,19,Black Hawk County,Black Hawk IA,2,4,13,567.11,571.91,128012,51759,42.487586,-92.344731,6,moist,f,black hawk ia,19013
Iowa,IA,19,Osceola County,Osceola IA,2,4,143,398.77,399.48,7003,3012,43.379878,-95.633004,6,moist,f,osceola ia,19143
Iowa,IA,19,Delaware County,Delaware IA,2,4,55,577.85,579.05,18404,7682,42.469875,-91.377044,6,moist,f,delaware ia,19055
Iowa,IA,19,Sioux County,Sioux IA,2,4,167,767.88,768.58,31589,11260,43.075135,-96.182305,6,moist,f,sioux ia,19167
Iowa,IA,19,Warren County,Warren IA,2,4,181,571.64,573.21,40671,15289,41.373285,-93.559883,5,moist,f,warren ia,19181
Iowa,IA,19,Wapello County,Wapello IA,2,4,179,431.81,435.98,36051,15873,41.026714,-92.41578,5,moist,f,wapello ia,19179
Iowa,IA,19,Lyon County,Lyon IA,2,4,119,587.5,587.63,11763,4758,43.387622,-96.205202,6,moist,f,lyon ia,19119
Iowa,IA,19,Emmet County,Emmet IA,2,4,63,395.74,402.38,11027,4889,43.377876,-94.688734,6,moist,f,emmet ia,19063
Iowa,IA,19,Cedar County,Cedar IA,2,4,31,579.52,581.96,18187,7570,41.770019,-91.118036,5,moist,f,cedar ia,19031
Iowa,IA,19,Bremer County,Bremer IA,2,4,17,437.9,439.6,23325,9337,42.765073,-92.345886,6,moist,f,bremer ia,19017
Iowa,IA,19,Madison County,Madison IA,2,4,121,561.14,562.3,14019,5661,41.33691,-94.01757,5,moist,f,madison ia,19121
Iowa,IA,19,Polk County,Polk IA,2,4,153,569.35,591.9,374601,156447,41.627938,-93.630942,5,moist,f,polk ia,19153
Iowa,IA,19,Cherokee County,Cherokee IA,2,4,35,577.15,577.34,13035,5850,42.730472,-95.611591,6,moist,f,cherokee ia,19035
Iowa,IA,19,Dallas County,Dallas IA,2,4,49,586.47,591.73,40750,16529,41.682923,-94.021682,5,moist,f,dallas ia,19049
Iowa,IA,19,Mitchell County,Mitchell IA,2,4,131,468.92,469.4,10874,4594,43.349343,-92.820473,6,moist,f,mitchell ia,19131
Iowa,IA,19,Chickasaw County,Chickasaw IA,2,4,37,504.64,505.48,13095,5593,43.051169,-92.322842,6,moist,f,chickasaw ia,19037
Iowa,IA,19,Montgomery County,Montgomery IA,2,4,137,423.88,424.81,11771,5399,41.013101,-95.159253,5,moist,f,montgomery ia,19137
Iowa,IA,19,Jefferson County,Jefferson IA,2,4,101,435.34,436.72,16181,7241,41.03164,-91.963376,5,moist,f,jefferson ia,19101
Iowa,IA,19,Buchanan County,Buchanan IA,2,4,19,571.26,573.35,21093,8697,42.477421,-91.863059,6,moist,f,buchanan ia,19019
Iowa,IA,19,Cass County,Cass IA,2,4,29,564.33,565.01,14684,6590,41.358575,-94.965991,5,moist,f,cass ia,19029
Iowa,IA,19,Scott County,Scott IA,2,4,163,457.93,468.17,158668,65649,41.572127,-90.578862,5,moist,f,scott ia,19163
Iowa,IA,19,Howard County,Howard IA,2,4,89,473.4,473.76,9932,4327,43.360011,-92.288378,6,moist,f,howard ia,19089
Iowa,IA,19,Carroll County,Carroll IA,2,4,27,569.31,570.24,21421,9019,42.028619,-94.85571,5,moist,f,carroll ia,19027
Iowa,IA,19,Guthrie County,Guthrie IA,2,4,77,590.6,593.06,11353,5467,41.678413,-94.451238,5,moist,f,guthrie ia,19077
Iowa,IA,19,Muscatine County,Muscatine IA,2,4,139,438.67,449.07,41722,16786,41.472456,-91.084801,5,moist,f,muscatine ia,19139
Iowa,IA,19,Johnson County,Johnson IA,2,4,103,614.48,623.35,111006,45831,41.674915,-91.568871,5,moist,f,johnson ia,19103
Iowa,IA,19,Ida County,Ida IA,2,4,93,431.71,432.23,7837,3506,42.391959,-95.507352,6,moist,f,ida ia,19093
Iowa,IA,19,Davis County,Davis IA,2,4,51,503.24,504.89,8541,3530,40.745794,-92.421763,5,moist,f,davis ia,19051
Iowa,IA,19,Crawford County,Crawford IA,2,4,47,714.36,714.99,16942,6958,42.026888,-95.369384,5,moist,f,crawford ia,19047
Iowa,IA,19,Dickinson County,Dickinson IA,2,4,59,381.06,403.69,16424,11375,43.385253,-95.143197,6,moist,f,dickinson ia,19059
Iowa,IA,19,Linn County,Linn IA,2,4,113,717.44,724.55,191701,80551,42.029994,-91.630559,5,moist,f,linn ia,19113
Iowa,IA,19,Des Moines County,Des Moines IA,2,4,57,416.15,429.8,42351,18643,40.854437,-91.156013,5,moist,f,des moines ia,19057
Iowa,IA,19,Clayton County,Clayton IA,2,4,43,778.81,792.81,18678,8619,42.852007,-91.320308,6,moist,f,clayton ia,19043
Iowa,IA,19,Winneshiek County,Winneshiek IA,2,4,191,689.61,689.88,21310,8208,43.27691,-91.846129,6,moist,f,winneshiek ia,19191
Iowa,IA,19,Adair County,Adair IA,2,4,1,569.3,570.31,8243,3690,41.345508,-94.47193,5,moist,f,adair ia,19001
Iowa,IA,19,Calhoun County,Calhoun IA,2,4,25,570.15,572.29,11115,5219,42.387432,-94.632554,6,moist,f,calhoun ia,19025
Iowa,IA,19,Marion County,Marion IA,2,4,125,554.21,570.53,32052,12755,41.325547,-93.069235,5,moist,f,marion ia,19125
Iowa,IA,19,Allamakee County,Allamakee IA,2,4,5,639.56,658.71,14675,7142,43.268358,-91.370554,6,moist,f,allamakee ia,19005
